%time,field.header.seq,field.header.stamp,field.header.frame_id,field.pose.position.x,field.pose.position.y,field.pose.position.z,field.pose.orientation.x,field.pose.orientation.y,field.pose.orientation.z,field.pose.orientation.w
1580572321153936169,19,1580572321153936169,world,0.629442148959769,0.012633414257819386,11.883819439059604,-0.028649665497403828,0.0028354644710090466,-0.006331812551084083,0.9995654398723993
1580572321271371640,20,1580572321271371640,world,0.6693230532957994,0.03632129697993158,12.523853846238525,-0.030240986676090553,0.0013306619943985944,-0.007286094442103576,0.9995151924106483
1580572321383108102,21,1580572321383108102,world,0.7085170098800968,0.0561555997634291,13.205037249735094,-0.031970773761634576,0.0016100033246628064,-0.00831611661735229,0.9994529032209369
1580572321496143855,22,1580572321496143855,world,0.7419081518110808,0.07921137291885927,13.848663589470844,-0.03344234645866516,0.0003357375279649723,-0.007690749963466372,0.9994109997041702
1580572321608135252,23,1580572321608135252,world,0.7699111261903419,0.09548614084560159,14.504758292918831,-0.03451250067015165,0.001484815251372915,-0.0030288831206718154,0.9993985721892837
1580572321720118479,24,1580572321720118479,world,0.8087214048962602,0.11390634272716094,15.152661657136067,-0.03590719408579167,-0.0007328175824104801,-0.0037175233362014832,0.9993479435653587
1580572321833345765,25,1580572321833345765,world,0.840459484115668,0.1539197600791653,15.778944135501792,-0.036711154069588074,-0.0015932877499360261,-0.007590142501455838,0.9992958212113194
1580572321948206987,26,1580572321948206987,world,0.8720148296879491,0.1858274112528875,16.424654591092334,-0.03727163657101385,-0.003258098651320316,-0.00920137469752019,0.9992574975059576
1580572322063803207,27,1580572322063803207,world,0.8993759945629554,0.18883799794473943,17.071742971475402,-0.03776371260747427,-0.0031774341209789268,-0.0026023364407882924,0.99927825511948
1580572322177050684,28,1580572322177050684,world,0.9276280374434331,0.2031564663214962,17.707316836661303,-0.037756100061415936,-0.002857047032718542,6.118855636138929e-05,0.9992828927170199
1580572322288938623,29,1580572322288938623,world,0.9651820558139164,0.24246565772697437,18.363099133769765,-0.03782008059874347,0.0005846400215055421,-0.0038587677538527263,0.9992769503252957
1580572322402178156,30,1580572322402178156,world,19.023419522492283,-0.1555904898621563,-0.43936644157372484,-0.023523485626066598,0.6979853729003588,0.014568413791185003,0.7155773380182838
1580572322515545124,31,1580572322515545124,world,20.028931709017414,-0.2629409037918977,-0.2471752296052525,-0.022064640847107925,0.6995163167786586,0.01615100848915152,0.7140932990512573
1580572322635229747,32,1580572322635229747,world,20.705224538390702,-0.25441804601453866,-0.26156930107023957,-0.02035825827235179,0.6990714375884514,0.016799646154576114,0.7145645346731437
1580572322749343362,33,1580572322749343362,world,21.425241303414737,-0.22251748979573316,-0.2906811115610868,-0.019977871697059793,0.698135490042137,0.01573779784102665,0.7155138845676008
1580572322868557850,34,1580572322868557850,world,22.107143185111973,-0.21384486539946623,-0.30859247169628556,-0.020036034078944644,0.6982373397983423,0.014581165836184178,0.7154374289087291
1580572322983383376,35,1580572322983383376,world,22.77846404933558,-0.2124658044835388,-0.32373229712145424,-0.019540993076202013,0.6984228918968158,0.01313798322881827,0.7152978361634066
1580572323097881213,36,1580572323097881213,world,23.4159750003466,-0.21730872187166583,-0.34504853665078095,-0.01824661964953276,0.6982953286505219,0.011684846390912178,0.7154818537441643
1580572323213634417,37,1580572323213634417,world,24.085709914257524,-0.22198370527388978,-0.360879343251278,-0.016701595273477282,0.6982087649188491,0.009706530872294545,0.7156335605292558
1580572323325854048,38,1580572323325854048,world,24.820305361197683,-0.22546646473355691,-0.38242217842572335,-0.014801892412229468,0.6978440705264334,0.006909942901538966,0.716063454253693
1580572323441103666,39,1580572323441103666,world,25.49490979833381,-0.23955778772201275,-0.40372139707756594,-0.011965482274436542,0.6981797551907947,0.0037714455214196735,0.7158126102048735
1580572323561757324,40,1580572323561757324,world,26.207279333260324,-0.26045249383758184,-0.4215163483501727,-0.00844483731138921,0.6990506611910895,0.00013041885358122497,0.715022372249236
1580572323677012192,41,1580572323677012192,world,26.881805469587935,-0.2856258288093896,-0.4388358659055849,-0.004870401826285774,0.6991001460516973,-0.0038867464752613003,0.7149966133811082
1580572323789410814,42,1580572323789410814,world,27.480795888798273,-0.32668795481757207,-0.4636804128903007,-0.0007900361666535627,0.6989402428697217,-0.00759760013864698,0.715139296674321
1580572323904827639,43,1580572323904827639,world,28.149991893659706,-0.3704476661924203,-0.4827935757011188,0.0026760063458849317,0.6988565427807142,-0.011470827144705693,0.7151649462233881
1580572324016867487,44,1580572324016867487,world,28.840256218120587,-0.4177279672831422,-0.49988177631318975,0.006043210536561259,0.6988290002011973,-0.01567555593734506,0.7150914643713778
1580572324132109461,45,1580572324132109461,world,29.507453145173752,-0.47352965684961745,-0.5181833458779943,0.009914857783075635,0.6987393819755727,-0.019188347699013283,0.7150502349639202
1580572324244330010,46,1580572324244330010,world,30.176938022604613,-0.5414668704399936,-0.5376083629616883,0.013643148645864312,0.6990653125909062,-0.02280604021212702,0.7145638465077895
1580572324363373183,47,1580572324363373183,world,30.866872559313002,-0.6157095302039086,-0.5577908449476503,0.017302459993567193,0.6989336786694176,-0.026337188741893634,0.7144918774355995
1580572324474984401,48,1580572324474984401,world,31.52453659640215,-0.6939961403415,-0.5770100547940165,0.020771627959748323,0.6985805706788655,-0.029951382918730184,0.7146023931732536
1580572324587923107,49,1580572324587923107,world,32.18813109389574,-0.780685069938241,-0.5975888701333272,0.024530527662630412,0.6990699962539166,-0.03255378061617106,0.7138905136534792
1580572324701478377,50,1580572324701478377,world,32.82416742111985,-0.872757053421223,-0.6771936794432936,0.027787282758158425,0.6999567313475987,-0.035419835796070935,0.7127649797473073
1580572324814308333,51,1580572324814308333,world,33.47906818577822,-0.9668632000332069,-0.6961223417224733,0.031039505789930557,0.7005310395464478,-0.03713507433157348,0.7119788204509467
1580572324929091784,52,1580572324929091784,world,34.13465181138227,-1.0661934496592353,-0.7159902954057715,0.03361235734207318,0.7005402633070353,-0.038716210926117364,0.7117687333411586
1580572325043042102,53,1580572325043042102,world,34.80737173060312,-1.1604290786831841,-0.742215849410937,0.0359094175747411,0.6999723126819875,-0.03954528481123064,0.7121696484325731
1580572325165041706,54,1580572325165041706,world,35.49787930888752,-1.270850503978295,-0.7602661510400717,0.037346909845927284,0.6988254994832014,-0.03977284710007341,0.7132084595222389
1580572325287989165,55,1580572325287989165,world,36.189166067920944,-1.3753087780614432,-0.7829147832713321,0.03786688176829021,0.6978005072685971,-0.03958424756668786,0.7141944980280153
1580572325407042833,56,1580572325407042833,world,36.854789721539184,-1.472989105993177,-0.8025011390743622,0.03858518285957697,0.698136100825315,-0.03903042248017089,0.7138583995523446
1580572325525470897,57,1580572325525470897,world,37.50718112800416,-1.5690482293891463,-0.822910454246502,0.03936315227763008,0.6991631518519169,-0.03858683650320622,0.7128341861488153
1580572325643245035,58,1580572325643245035,world,38.135933919155256,-1.6673814692492268,-0.857868313153582,0.039142454633454435,0.7002635052620376,-0.03919312481726492,0.7117322524765313
1580572325760174061,59,1580572325760174061,world,38.76359655401495,-1.760683370530578,-0.8703178227193273,0.039945620095221485,0.7015331557097305,-0.038773857152960604,0.7104591395154085
1580572325877896594,60,1580572325877896594,world,39.377129194645825,-1.858054966874377,-0.8842676177908473,0.04102424728624061,0.7020451669028668,-0.037478451386869414,0.7099613257909497
1580572326001252138,61,1580572326001252138,world,39.99161213238611,-1.953361319020483,-0.9021573621154664,0.041880374868686905,0.7021722352671572,-0.036241209713891394,0.70984982509142
1580572326116407515,62,1580572326116407515,world,40.52351000288506,-2.023907993863661,-0.9213576988182464,0.04249208393383481,0.7025814770094834,-0.034661040976974575,0.7094874213113783
1580572326234032512,63,1580572326234032512,world,41.07332408551278,-2.11396598054378,-0.9269024168482787,0.04242317528459735,0.70263464297414,-0.03277841674625855,0.7095283649203632
1580572326352936220,64,1580572326352936220,world,41.612310678705015,-2.190988565641275,-0.9452853677723381,0.04212920272907678,0.7025543794929904,-0.031387246352349275,0.7096882838350281
1580572326470760511,65,1580572326470760511,world,42.13509917047784,-2.261505672492026,-0.9644168751017848,0.041295425803965786,0.7035485290275425,-0.03049245364883636,0.7087908078611301
1580572326592520980,66,1580572326592520980,world,42.75659190702614,-2.3375674358154273,-0.9903193450789392,0.040515080017372605,0.7047465420666418,-0.030394186092141687,0.7076490558773221
1580572326711652921,67,1580572326711652921,world,43.24584191949263,-2.4114610808602954,-1.003386010538132,0.041095412555329676,0.7060243519937246,-0.029550184771929795,0.7063763678427275
1580572326829472526,68,1580572326829472526,world,43.70375797445837,-2.4791712840589915,-1.017443434660076,0.04207888690573351,0.7070602965113115,-0.028531670623866558,0.7053233853414117
1580572326954585348,69,1580572326954585348,world,44.192245422235544,-2.5470547798859586,-1.0416101605288697,0.04392896356252984,0.7068407917574018,-0.027056924931695904,0.7054887035838885
1580572327075672115,70,1580572327075672115,world,44.577207323991686,-2.604779312337411,-1.0510390058818508,0.04401674122316016,0.7057615689943222,-0.027230944049272433,0.7065561922071029
1580572327194220032,71,1580572327194220032,world,44.91607571372175,-2.646670190171312,-1.065985577627365,0.0429408118618988,0.7045316538422072,-0.028330160703212363,0.707805546774827
1580572327319019594,72,1580572327319019594,world,45.223582216460905,-2.687551175567635,-1.080029047416014,0.04246369407088613,0.7038109475914044,-0.028412134039222724,0.7085477046453176
1580572327438931346,73,1580572327438931346,world,45.49179396703953,-2.7256280357400753,-1.0887318852184524,0.04299002653069829,0.7030626267313284,-0.028146846989392554,0.7092690119778554
1580572327557175216,74,1580572327557175216,world,45.70690548369276,-2.755129056380781,-1.0973102396772818,0.04314253532219038,0.70274416441819,-0.02798313832172673,0.7095818222292634
1580572327675601532,75,1580572327675601532,world,45.87538205034099,-2.770494486514676,-1.096040514654936,0.04266631967373688,0.7028129516328048,-0.028460465328263403,0.7095234400511121
1580572327801032092,76,1580572327801032092,world,46.022322994962934,-2.790316759448051,-1.1012982579430268,0.042567064810165076,0.7022280923166975,-0.028509586167558144,0.7101062694121308
1580572327917963202,77,1580572327917963202,world,46.13308253308668,-2.8066721580246083,-1.1070668613196277,0.042625779636740385,0.7011810227286275,-0.028485302118234343,0.7111377224520874
1580572328034847164,78,1580572328034847164,world,46.21056527674047,-2.81833072496262,-1.1102907649025422,0.042582419664497856,0.7003954336844486,-0.028455930360454202,0.7119152765041303
1580572328158223608,79,1580572328158223608,world,46.27790458782728,-2.8272248715739092,-1.1144499216154866,0.04249718026223077,0.699704937544293,-0.028557533237929412,0.7125949925961923
1580572328275246584,80,1580572328275246584,world,46.3574931531753,-2.8321392893530204,-1.1247318075442907,0.0420711876314124,0.6989382716603915,-0.028969106162373102,0.7133555320341285
1580572328393330229,81,1580572328393330229,world,46.383810626978345,-2.835951201468033,-1.1218414337373606,0.04208422666868896,0.6984675495681951,-0.028919946021167955,0.7138176416823648
1580572328511970510,82,1580572328511970510,world,46.41295095717749,-2.8401937824415215,-1.1216448849862681,0.042132904403495576,0.6981449765290553,-0.02890952039724142,0.7141307652102349
1580572328633900798,83,1580572328633900798,world,46.43947959293362,-2.8434831365411277,-1.1217412715432165,0.04211769401150584,0.6978428687631856,-0.028908452244163548,0.7144268988399365
1580572328756424962,84,1580572328756424962,world,46.46899642406916,-2.8467635728160996,-1.1215227132918395,0.04206291369135135,0.6975623239290532,-0.028904367863242516,0.7147042289447313
1580572328878300868,85,1580572328878300868,world,46.49790537505314,-2.8535478864700288,-1.1252635425835962,0.0419481446032169,0.6972692234609587,-0.028796624742553,0.7150012817237943
1580572328998053921,86,1580572328998053921,world,46.52553981106265,-2.856934860161232,-1.1233415119518728,0.04188958232321453,0.6970287029691297,-0.028668673494586214,0.7152443268946624
1580572329121754598,87,1580572329121754598,world,46.56335962911636,-2.8615870899129625,-1.124113645327455,0.04175586026760114,0.6968364130520682,-0.028609902049103523,0.715441781956374
1580572329242973572,88,1580572329242973572,world,46.604686735498376,-2.8669066867291972,-1.1256196794322344,0.04161701936191131,0.6967042608916555,-0.02842323127632134,0.71558600073747
1580572329361295833,89,1580572329361295833,world,46.65068870077327,-2.8713666095789208,-1.1257706092741078,0.04131666140667867,0.6966027191762211,-0.028311259553566653,0.7157066952412607
1580572329481079427,90,1580572329481079427,world,46.681705649660046,-2.87469516578716,-1.1290328185009901,0.04111948831495573,0.6964713104605269,-0.02802831905240256,0.7158570950205472
1580572329596594941,91,1580572329596594941,world,46.73613083742033,-2.8808521914846095,-1.1293179890854201,0.04069975491743085,0.6963679919971363,-0.02780911093381673,0.7159900958332552
1580572329713652368,92,1580572329713652368,world,46.797566680529705,-2.886706174852862,-1.1310768426658182,0.04029208880774745,0.6962887639631942,-0.02754686133241227,0.7161003283290699
1580572329838235805,93,1580572329838235805,world,46.8680671608375,-2.8949886800841744,-1.133263379678736,0.03981983411464106,0.6962395180156926,-0.027192071719894313,0.7161882191454753
1580572329951559611,94,1580572329951559611,world,46.939621966395364,-2.9024321368462633,-1.134793223266433,0.03936315253576601,0.6961571270203147,-0.026797146772461502,0.7163084273282867
1580572330066215095,95,1580572330066215095,world,47.01032969463617,-2.912797563895479,-1.138543800084748,0.038763283589891416,0.6960570100218536,-0.026541872601364064,0.7164479791599824
1580572330181210403,96,1580572330181210403,world,47.08735568625049,-2.9209831371783697,-1.1394394986074587,0.03830630230454396,0.6961772927385509,-0.026038791037705757,0.7163741088945514
1580572330296262692,97,1580572330296262692,world,47.164307785296145,-2.9290151197085486,-1.1407033874893528,0.03781453780123949,0.6963807539406721,-0.025618192836280772,0.7162176593249749
1580572330410697660,98,1580572330410697660,world,47.23518822721791,-2.937395558729471,-1.141476220947359,0.03738246101134759,0.696440013261723,-0.02512620260464688,0.7162001514064743
1580572330530402368,99,1580572330530402368,world,47.306573023539244,-2.9425668394685687,-1.1436470758990653,0.03691934869859656,0.6964790711685128,-0.024838242597568234,0.7161961878788813
1580572330650735673,100,1580572330650735673,world,47.36144233056813,-2.94655756634151,-1.1433789649648824,0.03665144370758255,0.6966207049018257,-0.024288003561600546,0.7160911307972655
1580572330765136137,101,1580572330765136137,world,47.41722666309723,-2.952253907939742,-1.1439530933833932,0.03633166460234961,0.6966981359146759,-0.02392682911122019,0.7160442257094491
1580572330886316847,102,1580572330886316847,world,47.46310664954497,-2.957268059136278,-1.1461871735511346,0.03603890228368834,0.696955790979641,-0.02372391101156567,0.7158149625362298
1580572331002844525,103,1580572331002844525,world,47.479203416961475,-2.9617118655736725,-1.1450404815689454,0.0358463234650034,0.6975105287009301,-0.023651685423911585,0.7152865138235404
1580572331116467401,104,1580572331116467401,world,47.49591961632861,-2.964244863351328,-1.146285564920463,0.03583031748888455,0.6977423288344933,-0.023560696783416636,0.7150641763335895
1580572331229075869,105,1580572331229075869,world,47.499403202076074,-2.9648205713248448,-1.1492697586929816,0.0358088454183234,0.6970713425205481,-0.023665256900125053,0.7157159705831571
1580572331349919464,106,1580572331349919464,world,47.49815152713883,-2.9648916569344648,-1.1502792464174982,0.03574548772835606,0.6961063460183247,-0.0237231291571508,0.7166557484911413
1580572331464336156,107,1580572331464336156,world,47.49972419288845,-2.9652485063497114,-1.150214914489605,0.03576950249163103,0.6961017369785382,-0.02371630888890363,0.7166592520415266
1580572331580890929,108,1580572331580890929,world,47.49166084815185,-2.964829760284961,-1.1542622056809027,0.03579238642398443,0.696310559799738,-0.02360710797908055,0.7164588359806228
1580572331697100653,109,1580572331697100653,world,47.47988611486794,-2.9633154992508315,-1.1520869563354692,0.035773413607774716,0.6960971581135296,-0.02364118059984121,0.716665978394407
1580572331813027805,110,1580572331813027805,world,47.472019157352506,-2.962382149726425,-1.1505825766519981,0.03578650374012426,0.6961262310086092,-0.023597780988638135,0.716638573569066
1580572331929101834,111,1580572331929101834,world,47.47052817941089,-2.9618246520378024,-1.150402815335788,0.03576678622778722,0.6962515460181394,-0.023631670668448162,0.7165166946523935
1580572332045370828,112,1580572332045370828,world,47.46867306922388,-2.9609274452230414,-1.1493516964456134,0.035761700499072124,0.6961519468111886,-0.023654705723650166,0.7166129143835459
1580572332167049537,113,1580572332167049537,world,47.46032382655802,-2.9609920919812724,-1.1502055974467265,0.035797562068231106,0.6961553332814809,-0.023549241040732072,0.7166113548410326
1580572332281263551,114,1580572332281263551,world,47.4639529979538,-2.961646157045319,-1.1507948186736527,0.03578830027074113,0.6961772022503808,-0.023557858190622196,0.7165903422739713
1580572332397685312,115,1580572332397685312,world,47.46431819342187,-2.962064554910693,-1.151150242188118,0.03580037888749266,0.6961237704840337,-0.023543532120802752,0.7166419628417352
1580572332518496508,116,1580572332518496508,world,47.4635261788427,-2.9613471812914023,-1.151135702992124,0.03577200813930568,0.6961490831422851,-0.02358497105238946,0.7166174890220058
1580572332637047329,117,1580572332637047329,world,47.46280463902221,-2.961346112639311,-1.151349096267574,0.035824954545702586,0.696174543367119,-0.02351956820963552,0.7165922657656503
1580572332752220684,118,1580572332752220684,world,47.48394176623406,-2.9603096292510145,-1.148787188270087,0.035732922376037694,0.6961477606498571,-0.023629649900196458,0.7166192356944413
1580572332871175486,119,1580572332871175486,world,47.4835412585619,-2.960164969146934,-1.1486443539659676,0.035764545889923,0.6961542264122003,-0.02357875430668971,0.7166130079559888
1580572332994215815,120,1580572332994215815,world,47.485238450290296,-2.9610657966317984,-1.1486066652175904,0.035744003281652365,0.6961508161624026,-0.02360174944950462,0.7166166468748462
1580572333110226134,121,1580572333110226134,world,47.48438165105907,-2.960671374828534,-1.1487752951318884,0.035780145014050906,0.6961375112939926,-0.02357312087519195,0.7166287591430718
1580572333227886235,122,1580572333227886235,world,47.484092192419396,-2.9603183985354447,-1.148639410163958,0.035758069629074046,0.6961644414089135,-0.023603184816514907,0.7166026213402358
1580572333350149865,123,1580572333350149865,world,47.47718093967238,-2.955965926509492,-1.1487131470712661,0.0358544785967118,0.6961518333220428,-0.023494434122584663,0.7166136733596746
1580572333465737680,124,1580572333465737680,world,47.47650654307007,-2.956710309815617,-1.148207136483279,0.03585823398532014,0.6961383412106076,-0.02348497296769495,0.7166268773362904
1580572333591381739,125,1580572333591381739,world,47.475398754172474,-2.956851817125658,-1.1477768072175705,0.035847702517749776,0.6961461304233123,-0.02348946009649524,0.716619672361885
1580572333706632871,126,1580572333706632871,world,47.475078265102866,-2.9566234403320424,-1.147833047267662,0.03583583575079084,0.6961345634477746,-0.023503080461334022,0.7166311087954308
1580572333823223798,127,1580572333823223798,world,47.47410447820637,-2.955854380749548,-1.1475441453407509,0.03584194716809384,0.6961514905079814,-0.023500026855505642,0.7166144115411657
1580572333941405260,128,1580572333941405260,world,47.445623438042745,-2.9577562972617146,-1.1468125212288802,0.035897596341051365,0.6961595945238912,-0.023494019100752432,0.7166040145486888
1580572334060159223,129,1580572334060159223,world,47.44599913869826,-2.957815912108292,-1.1465625676214177,0.035889693516033286,0.6961505631155345,-0.023479611447120168,0.7166136109781053
1580572334180985759,130,1580572334180985759,world,47.4462352396863,-2.957465476048453,-1.1469247991820932,0.03586360240646519,0.6961617316243904,-0.02352163731753357,0.7166027565023686
1580572334296702121,131,1580572334296702121,world,47.446549929857355,-2.9579265529594654,-1.14688450209266,0.035887318255008196,0.6961117540849722,-0.02348010092917061,0.7166514651955901
1580572334418170500,132,1580572334418170500,world,47.44581744003186,-2.957749025238539,-1.1470434984523532,0.035879045093732895,0.6961443421667068,-0.02349621934257428,0.716619672361885
1580572334533599490,133,1580572334533599490,world,47.45294873163458,-2.9555802046708477,-1.1479319832979726,0.03592573145501906,0.6961746089475093,-0.023447378463950463,0.7165894585057933
1580572334650524706,134,1580572334650524706,world,47.45368255554012,-2.9560973958748846,-1.1474312914092586,0.035956903086225074,0.6961625593287584,-0.023411310453272223,0.7166007914503914
1580572334773110494,135,1580572334773110494,world,47.45373712335437,-2.955853554788326,-1.1474335864042375,0.035958905316732695,0.6961717937556279,-0.023401029528943358,0.7165920994098172
1580572334891113811,136,1580572334891113811,world,47.45333363809737,-2.95621153028503,-1.147656381581629,0.03597039665117262,0.6961593806500185,-0.02339359671126616,0.7166038066073006
1580572335013795902,137,1580572335013795902,world,47.45355076503906,-2.9559920825252615,-1.1476210536787574,0.03597526406324294,0.696156664251744,-0.023392510696964845,0.7166062603118363
1580572335131660570,138,1580572335131660570,world,47.44230736564353,-2.9563047494633086,-1.1459260682385777,0.0359997435018566,0.6961791878436977,-0.023373271850919978,0.716583760774197
1580572335251356499,139,1580572335251356499,world,47.444139261575934,-2.956497899895325,-1.146640377083111,0.03595191839047875,0.6961831533508088,-0.023404321776816377,0.7165813485822072
1580572335369266186,140,1580572335369266186,world,47.44331492960045,-2.9565953872723316,-1.146053741648922,0.03596701370674317,0.6961787183780173,-0.02340739062176144,0.7165848005096195
1580572335492642864,141,1580572335492642864,world,47.442342784256,-2.9562603491543795,-1.1461298479768907,0.035967634951397646,0.6961675882853852,-0.023405397315050175,0.7165955720798224
1580572335608410559,142,1580572335608410559,world,47.442537544515986,-2.955786504930227,-1.1459764295943682,0.03595290638641338,0.6961802252833269,-0.023437995960498188,0.7165829497795204
1580572335725378489,143,1580572335725378489,world,47.455295882123906,-2.9563489823057996,-1.148806329264124,0.0360093298608329,0.6961577706017315,-0.02339269455030259,0.7166034946951052
1580572335840442745,144,1580572335840442745,world,47.45467724348144,-2.9565079366628586,-1.1484631140518964,0.03603371126690641,0.696169658495555,-0.02336510773873222,0.716591600342086
1580572335956533766,145,1580572335956533766,world,47.45478644513115,-2.9565311323527075,-1.1485657060755319,0.036032069517439765,0.6961529165094086,-0.02335358994331955,0.7166082773338491
1580572336075666060,146,1580572336075666060,world,47.45484411872859,-2.9563465277278542,-1.1487989793866964,0.03601526645490715,0.6961518678777867,-0.02338753281264996,0.7166090571088788
1580572336190423991,147,1580572336190423991,world,47.45482526334939,-2.956242523653631,-1.1489346810637366,0.03603129325919799,0.696147155896509,-0.023372991623546977,0.7166133510548415
1580572336306366281,148,1580572336306366281,world,47.45461801273278,-2.9562072342256407,-1.1488776030037506,0.036026457378679246,0.6961412896516266,-0.023380164109257893,0.7166190901385676
1580572336422006072,149,1580572336422006072,world,47.41626850689018,-2.957347958797051,-1.148221136496411,0.03604756577250416,0.6961420239669802,-0.02331724793170074,0.7166193188692129
1580572336539379593,150,1580572336539379593,world,47.416219504791606,-2.957904063047283,-1.1478527598723431,0.03603530389238173,0.6961479496175063,-0.023315895122686437,0.7166142036027945
1580572336655759510,151,1580572336655759510,world,47.41614099217967,-2.9582084246531197,-1.1478342823758343,0.03605061506652791,0.6961464453210168,-0.023299270223920646,0.7166154096445079
1580572336773182955,152,1580572336773182955,world,47.41632846521793,-2.9576934400329913,-1.14781683204364,0.03602050333968508,0.6961439464923224,-0.02333661353355117,0.7166181960089806
1580572336889354441,153,1580572336889354441,world,47.41653854179086,-2.9576808286770477,-1.1478495787645615,0.035995768384613346,0.6961280404049468,-0.023357370773097696,0.7166342277910864
1580572337015263298,154,1580572337015263298,world,47.427820580942104,-2.9563599137514043,-1.1493240446881083,0.03606938266238183,0.696104351195013,-0.02326686569167751,0.7166565178182127
1580572337130255591,155,1580572337130255591,world,47.42840802170774,-2.956318432010307,-1.148667665237574,0.03611194899277434,0.6961216274131804,-0.023230749941424416,0.7166386463450279
1580572337246008860,156,1580572337246008860,world,47.42691427556842,-2.9559868667128297,-1.148592049408994,0.03607838938003518,0.6961301980340404,-0.023260272568838093,0.7166311503821288
1580572337367501646,157,1580572337367501646,world,47.42753378066175,-2.9560919903780674,-1.1492907028294859,0.036070726676579526,0.6961135193162141,-0.02327805209936857,0.7166470363242406
1580572337485842003,158,1580572337485842003,world,47.42646727312031,-2.956015701808899,-1.1489993648759764,0.0360945035860989,0.6961061770713758,-0.02326276802272743,0.7166534820903738
1580572337600241628,159,1580572337600241628,world,47.42788570105004,-2.9560797900190448,-1.1475604427223987,0.0359946628487272,0.6961334328209954,-0.023355199985047374,0.716629019060747
1580572337719402049,160,1580572337719402049,world,47.427844257066255,-2.9560697838638106,-1.1481499469480854,0.03600379134881608,0.6961270352208544,-0.023356717092887527,0.7166347060358866
1580572337837072621,161,1580572337837072621,world,47.42809026368844,-2.956205921601664,-1.1482644588132347,0.03599461335473463,0.6961416591911552,-0.02337712386209179,0.7166203793467057
1580572337950980148,162,1580572337950980148,world,47.42878537917488,-2.95621721538528,-1.1484310769572428,0.035988273687377836,0.6961495685842368,-0.023376578060886017,0.7166130079559888
1580572338070990765,163,1580572338070990765,world,47.43253163635735,-2.955603380955769,-1.148154695227639,0.03610990186332078,0.6961501799794486,-0.023263191055673798,0.7166100240287373
1580572338186327567,164,1580572338186327567,world,47.43293000765243,-2.956044861077304,-1.1476631162567212,0.03610734044234401,0.6961478331864418,-0.023243478055610264,0.7166130391468004
1580572338302265721,165,1580572338302265721,world,47.43266426489771,-2.956185890639534,-1.1473212266808988,0.036113762528439876,0.6961520966206898,-0.023240217898978715,0.7166086932139706
1580572338421320204,166,1580572338421320204,world,47.431831713235496,-2.9558900236572274,-1.1475920253774472,0.036127336113639635,0.6961505180335872,-0.023228440977972765,0.7166098472800434
1580572338540172603,167,1580572338540172603,world,47.43239372599396,-2.9559271854146703,-1.1474842226280675,0.0361360935183478,0.6961605833188538,-0.023218968592954733,0.7166000428577446
1580572338655702457,168,1580572338655702457,world,47.43269657934163,-2.9560303026499906,-1.1477178495253266,0.03612007275559257,0.6961548700272313,-0.02322998318385595,0.7166060523710998
1580572338771983118,169,1580572338771983118,world,47.430101425325006,-2.958194146053777,-1.1491925120895115,0.03605428828661573,0.696138408292174,-0.02327668435762361,0.7166237687054244
1580572338890001720,170,1580572338890001720,world,47.429055414650605,-2.9580084329763157,-1.149014099400529,0.036049856658392006,0.6961377048893531,-0.023277500104295547,0.7166246212409838
1580572339009454037,171,1580572339009454037,world,47.42971248784627,-2.957918380877226,-1.1490241227931568,0.03604492187936439,0.6961273536648257,-0.023279182048059843,0.7166349347615478
1580572339124947354,172,1580572339124947354,world,47.42950726197604,-2.957749383767485,-1.149149075923317,0.03605327644266126,0.6961357853812087,-0.023280221766902864,0.7166262119448648
1580572339237819875,173,1580572339237819875,world,47.42942043819182,-2.957950903280074,-1.1490871790465587,0.036065847078455865,0.6961390380331688,-0.02325698373251804,0.7166232488661709
1580572339356009102,174,1580572339356009102,world,47.42327616928934,-2.9556536282706807,-1.1487616026631056,0.036096431477508344,0.6961407525950076,-0.02321530057725681,0.7166213982353677
1580572339468063065,175,1580572339468063065,world,47.42333477830621,-2.9556202845782966,-1.1487213722609804,0.03608882647808264,0.6961395869784404,-0.02321568233944384,0.7166228122009066
1580572339585505787,176,1580572339585505787,world,47.423142328281884,-2.955795985045709,-1.1486158884153523,0.03607032465247526,0.6961296836092847,-0.02323790414096615,0.7166327930547708
1580572339698479880,177,1580572339698479880,world,47.422295911266474,-2.9554732040805867,-1.1486720766998113,0.0360744329777762,0.6961266241501617,-0.02323411712244181,0.7166356001448744
1580572339809646958,178,1580572339809646958,world,47.41575740035346,-2.9557239326365883,-1.14877992821628,0.03606462708640498,0.6961154423604535,-0.0232328435007913,0.7166470259277968
1580572339921933796,179,1580572339921933796,world,47.417333451469965,-2.9557501797756043,-1.1490332227454587,0.03605154186929285,0.6961219459881103,-0.02324242113267298,0.7166410583441554
1580572340034911615,180,1580572340034911615,world,47.416334272309705,-2.9557328998049437,-1.1484332956405927,0.036067594485240405,0.6961297049974887,-0.023236184120705956,0.7166328138480712
1580572340147516331,181,1580572340147516331,world,47.41672139150841,-2.955577426418543,-1.1486547662613367,0.0360611123265556,0.6961337364068368,-0.02324327969306639,0.7166290918376792
1580572340261056689,182,1580572340261056689,world,47.41625173231617,-2.9558666964397373,-1.1489491967784717,0.036053999247706574,0.6961303549437777,-0.023233768629843905,0.7166330009877482
1580572340381160811,183,1580572340381160811,world,47.41482743913255,-2.955746371637792,-1.1484191840581666,0.03607225809064724,0.6961200069684407,-0.023228867129667003,0.7166423267197498
1580572340493259221,184,1580572340493259221,world,47.41806238843351,-2.9577426398340743,-1.1481196577880048,0.03605824016985932,0.6961123325796951,-0.023247602076108292,0.7166498849441648
1580572340606408208,185,1580572340606408208,world,47.41664502920014,-2.9575107845816992,-1.1478173595181458,0.03607235727055228,0.696114006547867,-0.023231247396385914,0.7166480759678608
1580572340719031629,186,1580572340719031629,world,47.416987992698054,-2.957504199196925,-1.147461171460475,0.03609165960295652,0.6961278336623495,-0.023211036865085622,0.7166342693776034
1580572340836297762,187,1580572340836297762,world,47.41651617187493,-2.9574930155992796,-1.1468887379338053,0.036099122190731185,0.6961276768046107,-0.023217164181839653,0.7166338743055941
1580572340949637619,188,1580572340949637619,world,47.41667356991213,-2.9576902638683586,-1.1476678549006785,0.03606552223861609,0.6960271333375492,-0.023241665862997307,0.7167324276257938
1580572341064808317,189,1580572341064808317,world,47.41999805754876,-2.9582372805870776,-1.1477504840520432,0.036037345347018655,0.6958999174591781,-0.023178716827360883,0.7168593834171283
1580572341182246865,190,1580572341182246865,world,47.42637528188244,-2.9584225275949505,-1.1482716887777578,0.03599700711827718,0.6957114885838753,-0.023187591234606803,0.7170439873680226
1580572341294872733,191,1580572341294872733,world,47.43531103760463,-2.9592041058557292,-1.149110111148711,0.03594841807203621,0.6955505840963077,-0.0231292898792656,0.7172044224290508
1580572341406744536,192,1580572341406744536,world,47.44898355175297,-2.960390523149801,-1.1500617164513596,0.03582168521208926,0.6954431384988465,-0.023072999903820467,0.7173168157208542
1580572341521224983,193,1580572341521224983,world,47.46159088289692,-2.9619089240799354,-1.1510135063897575,0.03571889412669757,0.6953995251072026,-0.022949231797545246,0.7173681035910929
1580572341640605580,194,1580572341640605580,world,47.48537615022205,-2.9640226230870033,-1.1508181721707036,0.03556064848841105,0.695373692789116,-0.022808071616481844,0.7174055960485608
1580572341753572986,195,1580572341753572986,world,47.51321915919608,-2.9661952156690257,-1.1502952063245973,0.035394725993646965,0.6953256383974975,-0.022644309025265257,0.7174655487515501
1580572341867492196,196,1580572341867492196,world,47.54743259016938,-2.969721433065117,-1.1512804516098658,0.03513739520383248,0.6952810326950366,-0.022525993680554926,0.7175251226313487
1580572341985338550,197,1580572341985338550,world,47.58999187403373,-2.9730016457283597,-1.1519886949380092,0.034893519379595936,0.6952189635296259,-0.022320709397541966,0.7176036296500448
1580572342098913449,198,1580572342098913449,world,47.62706342537855,-2.9755074516142273,-1.151768641737069,0.034551632711395885,0.6951554991749423,-0.02215953018057392,0.7176865920901816
1580572342211607631,199,1580572342211607631,world,47.67772387595019,-2.981368078056379,-1.1525663022658108,0.03438988137746341,0.6951029530612761,-0.02179807101977974,0.7177562374208031
1580572342325145986,200,1580572342325145986,world,47.733696673046424,-2.987983610410385,-1.1545401025999822,0.03412245585948533,0.6950617533565117,-0.021524141450308735,0.7178172195472062
1580572342443293126,201,1580572342443293126,world,47.795872473480415,-2.994314516849848,-1.1560611169124164,0.03386954322302147,0.6949826510185169,-0.021129526816164233,0.7179174888500599
1580572342555753673,202,1580572342555753673,world,47.861881103671735,-3.000388032942212,-1.1572592664399557,0.033616095094908725,0.6948806268490128,-0.020764972152661744,0.718038849838181
1580572342671148815,203,1580572342671148815,world,47.9296752316917,-3.006668057087666,-1.1578731279671253,0.033400900786209,0.6947678594965713,-0.020462625694895983,0.7181666328772184
1580572342785662124,204,1580572342785662124,world,48.030386963482606,-3.01684089180647,-1.1602178766107998,0.033148396373212895,0.6945957090709474,-0.020059704003828983,0.7183562527081009
1580572342900013148,205,1580572342900013148,world,48.10436202067335,-3.023502558506182,-1.1614399537417444,0.032852077340443216,0.6944604894235973,-0.01982018192668764,0.7185071970453749
1580572343014694305,206,1580572343014694305,world,48.1840685236603,-3.031835958871499,-1.1627755828398092,0.032572410487330374,0.6943445016223576,-0.01964443207174665,0.7186368355604992
1580572343133556544,207,1580572343133556544,world,48.2670985795166,-3.0404132225882816,-1.16429378843495,0.03238028157125335,0.6942690796969954,-0.01939314805810002,0.7187251211089917
1580572343247976854,208,1580572343247976854,world,48.3552400322791,-3.0495363681788854,-1.165546500049755,0.03217316049722341,0.6942161850790416,-0.01925266566993733,0.7187893276235878
1580572343361595408,209,1580572343361595408,world,48.46260920817042,-3.0600129135866125,-1.1728822714015816,0.03206956426633272,0.6942051884397753,-0.019131966651718884,0.7188078400932072
1580572343477849128,210,1580572343477849128,world,48.55322353523062,-3.0690041977843387,-1.1716489107334782,0.03186693571379807,0.6942713838102988,-0.019133214274284684,0.7187529128471727
1580572343590861946,211,1580572343590861946,world,48.65140065865437,-3.079172406786311,-1.1736423110746617,0.03172800705381894,0.6941912953313636,-0.019322043803897748,0.718831327232423
1580572343704773448,212,1580572343704773448,world,48.75181700865383,-3.0903571268570875,-1.1747089693750663,0.03172626952256627,0.694027952749372,-0.0195352134515216,0.7189833739013732
1580572343825019891,213,1580572343825019891,world,48.860652411992604,-3.1034968772285954,-1.1766424837857694,0.031699756014259,0.6938337575703123,-0.019918673569062146,0.7191614134527767
1580572343938460990,214,1580572343938460990,world,48.98088644561812,-3.120131459423441,-1.184248739207439,0.03177499567369929,0.6936499406626077,-0.020215781289710816,0.7193271144436671
1580572344058986110,215,1580572344058986110,world,48.98238379817185,-3.116586591931463,2.707538150494927,0.02903135039645107,0.6648093167316199,-0.02284437106953574,0.7460992024007762
1580572344171246010,216,1580572344171246010,world,49.09525056480564,-3.129421900053793,2.7148624031839637,0.02932748097375627,0.6647711993934101,-0.023402877524645344,0.7461042353507424
1580572344283652587,217,1580572344283652587,world,49.21114658321474,-3.144066485306806,2.7220210906347653,0.0297305430855875,0.6647146168008146,-0.02386822634046449,0.7461239873540841
1580572344397167402,218,1580572344397167402,world,49.327620450620415,-3.1596816118387094,2.7301615102249412,0.030082733008807455,0.6646653227103556,-0.024499550257440293,0.7461332740101246
1580572344510080328,219,1580572344510080328,world,49.967811428835276,-3.3107803606819886,2.8404531000919877,0.0329786094919067,0.665546130091805,-0.02068614413735905,0.7453408261880301
1580572344629692410,220,1580572344629692410,world,50.086727780366004,-3.3274782129021343,2.8479952718635544,0.033443351502063276,0.6657696165859784,-0.02120467235404273,0.7451059383078135
1580572344740941131,221,1580572344740941131,world,50.19112971317021,-3.341712921077862,2.855586274456616,0.03393991609279094,0.665985027398405,-0.021681543283876965,0.7448771078723595
1580572344852264568,222,1580572344852264568,world,50.29519159978041,-3.3569451784557405,2.8618847779710226,0.0344542560980232,0.666199121291926,-0.021887654400580218,0.7446559813533105
1580572344969214555,223,1580572344969214555,world,50.391527562276856,-3.370624036541291,2.8678103464403497,0.03511348843814193,0.6662535794610375,-0.022131315468342964,0.7445693495649989
1580572345082119058,224,1580572345082119058,world,50.51464246596564,-3.381758425475007,2.87316270132533,0.03571217058079731,0.6659402649080017,-0.022522170772890225,0.7448093883477895
1580572345195684040,225,1580572345195684040,world,50.60722907124526,-3.393749206788309,2.876907806303346,0.03604633334674572,0.6654927919891924,-0.022909485237452946,0.7451813096519841
1580572345305641466,226,1580572345305641466,world,50.699021855535214,-3.408348471658,2.8804319712315607,0.03653861979346592,0.6651787606202996,-0.023317096370696604,0.7454249994875868
1580572345421939804,227,1580572345421939804,world,50.794061472657205,-3.4251344512867146,2.884313402839143,0.03764668642222982,0.6651553907897648,-0.02317999181571139,0.7453950936159808
1580572345533272517,228,1580572345533272517,world,50.89102174360821,-3.4455221523712494,2.890289821897292,0.039660643912738894,0.6655278613100785,-0.022307668113389113,0.7449846862332753
1580572345646059866,229,1580572345646059866,world,50.97962379016835,-3.4662729034776074,2.8913353516725078,0.04214919629572749,0.6657485001406398,-0.02147956881824602,0.7446750714108937
1580572345763557167,230,1580572345763557167,world,51.07535114553065,-3.4829349176633047,2.898150655998963,0.043180093560097166,0.6657226412547967,-0.02200008438792872,0.7446240434331483
1580572345880720578,231,1580572345880720578,world,51.17152891120179,-3.4970746416035317,2.902468701301302,0.04361727229172165,0.6657527849511513,-0.023455340861179765,0.7445271206688225
1580572345993725758,232,1580572345993725758,world,51.263254504864456,-3.5109394596703316,2.9088170356449785,0.04420165551310323,0.6657893030442662,-0.02522843972304456,0.744402041036164
1580572346110213026,233,1580572346110213026,world,51.34680525968459,-3.523300607879083,2.915356554090338,0.044586344142715915,0.6654902531918444,-0.02666341797071255,0.7445964268339166
1580572346226076960,234,1580572346226076960,world,51.40389342600006,-3.5302643782211502,2.9145379785687515,0.04504510284901908,0.6651204234702874,-0.028539218694759026,0.744829694848582
1580572346339149252,235,1580572346339149252,world,51.47780928243129,-3.5426386854884457,2.9204320739238048,0.045712357217030236,0.6648627716087404,-0.030154451925348966,0.7449554427794731
1580572346453502470,236,1580572346453502470,world,51.549369983749024,-3.5542676904964345,2.924081853347057,0.04642701078720872,0.6644076291947832,-0.03166693602500558,0.7452544939512846
1580572346569785868,237,1580572346569785868,world,51.61957610892955,-3.568727105525613,2.9276614199310913,0.04732840516862967,0.6639011274127221,-0.033101811788164195,0.745586762259197
1580572346684743428,238,1580572346684743428,world,51.68565627341489,-3.581230084742878,2.931274710985819,0.048343160385815896,0.6635211609018627,-0.034154065645054174,0.7458123680094809
1580572346802226124,239,1580572346802226124,world,51.87536973948828,-3.6141330917454404,2.9367961743686237,0.04936178980707773,0.6632099804377577,-0.035180243909498685,0.7459747858720973
1580572346914408480,240,1580572346914408480,world,51.9355274174214,-3.624817186156065,2.938452147001045,0.050441708018077555,0.6629418590625002,-0.03636021437019023,0.7460842631271137
1580572347029045501,241,1580572347029045501,world,51.99904955978046,-3.6366751864429077,2.9421219515866053,0.051370875879490664,0.6627078764033595,-0.03754234896022125,0.746170139895852
1580572347145243072,242,1580572347145243072,world,52.06769881161525,-3.6508625473431984,2.9446797212782894,0.05213548167411948,0.6625224061889003,-0.03879728302048977,0.7462176275020802
1580572347256819625,243,1580572347256819625,world,52.130846858305205,-3.662933031271093,2.9474911015619814,0.052897764772435886,0.6623885087703858,-0.03995242196877482,0.7462219307922462
1580572347372947628,244,1580572347372947628,world,52.18575966775897,-3.6752992492745067,2.9517815798885847,0.05368200387493496,0.6622437868958003,-0.04101934456103232,0.7462364978942599
1580572347489010131,245,1580572347489010131,world,52.24717189716503,-3.6875481883778196,2.9556328671355496,0.054489611581018824,0.6620523270389715,-0.04207920012847241,0.7462887633941299
1580572347603238034,246,1580572347603238034,world,52.30546067156485,-3.701481583259726,2.9588540631275455,0.05534868085162737,0.6617924339540537,-0.04289426007151729,0.7464096339330533
1580572347718697885,247,1580572347718697885,world,52.36353579059311,-3.714819953821877,2.96276437693885,0.05631723910376789,0.6615529960421754,-0.043657145135707454,0.7465052643173208
1580572347833630359,248,1580572347833630359,world,52.426153133013585,-3.7288870818197886,2.9667909111046233,0.057376621491414405,0.6612006553320825,-0.04442336833362101,0.7466914893197265
1580572347949213022,249,1580572347949213022,world,52.53228007769644,-3.7485643864485994,2.975080902922138,0.058245305197316785,0.6607998945022748,-0.04534838032274678,0.746923394809978
1580572348065975326,250,1580572348065975326,world,52.59800422520115,-3.7635495767756826,2.9797356033083986,0.05916118430891268,0.6605002037363275,-0.04631924179511031,0.7470569085807339
1580572348180891539,251,1580572348180891539,world,52.66721050260041,-3.7782949505494354,2.984195248189195,0.06014593058418286,0.6602627512241771,-0.04726807459904741,0.747128732429105
1580572348297048992,252,1580572348297048992,world,52.736000386580955,-3.793570683707724,2.988589197275502,0.06115111215230613,0.659965499585048,-0.0482807327587524,0.7472450101953192
1580572348409430544,253,1580572348409430544,world,52.80446480204428,-3.809619490524547,2.992754480830172,0.06220877907725337,0.6597627030943736,-0.049268177801892764,0.7472723295047622
1580572348533555897,254,1580572348533555897,world,52.85587694559078,-3.828623211278753,2.9951021961667834,0.06326162637278991,0.6597784484705423,-0.05030125184353618,0.7471011884704132
1580572348665136505,255,1580572348665136505,world,52.926599669272335,-3.846958529720398,3.002995485720149,0.0647074091742709,0.659540503362648,-0.05121351374671561,0.7471255412911134
1580572348780259679,256,1580572348780259679,world,52.9848820675747,-3.8615994675938268,3.0081131597812885,0.06589989172745757,0.6592927714463798,-0.05211811212373536,0.747177275935111
1580572348902693287,257,1580572348902693287,world,53.04578086559226,-3.876365348183244,3.0127954156438506,0.0668282910676233,0.6591500709318644,-0.0530002321038475,0.7471587683475561
1580572349017046789,258,1580572349017046789,world,53.09771540391799,-3.8901080983163094,3.0165570689060957,0.06757167262517136,0.6590553441615509,-0.05396990293720438,0.7471060351638474
1580572349137436743,259,1580572349137436743,world,53.15710874936026,-3.9092865672856103,3.0197750210462857,0.06833754754964652,0.658921802019551,-0.054750775555132546,0.7470973390165989
1580572349251319812,260,1580572349251319812,world,53.211604154914625,-3.922860615889796,3.0220048173846124,0.06924472729721301,0.6586959331768066,-0.05545378012549185,0.7471611416521882
1580572349368718759,261,1580572349368718759,world,53.26093239672416,-3.935378966643153,3.025664039011133,0.07001281596163468,0.6585443951357197,-0.0561366251827597,0.7471721903829157
1580572349483825845,262,1580572349483825845,world,53.31315285894502,-3.948790869955161,3.029996522133345,0.07097953563649614,0.6583068183887156,-0.056667694615409714,0.7472502049292357
1580572349607567706,263,1580572349607567706,world,53.36407336530179,-3.959694525195985,3.0343587634342697,0.07197665693764585,0.6580545005896017,-0.057257943569454614,0.7473321094439822
1580572349721768894,264,1580572349721768894,world,53.417266253979605,-3.981752677254116,3.0437575956344887,0.07287176850756726,0.6578272125932112,-0.05741569328018947,0.7474333435818311
1580572349836279267,265,1580572349836279267,world,53.45199502731671,-3.989267243225406,3.0432216203336537,0.07375294661470379,0.6575320168253979,-0.057933517000419016,0.7475666167802295
1580572349950450712,266,1580572349950450712,world,53.48124213205074,-3.995788559468231,3.0449834218710663,0.07458157244524134,0.6573024393591711,-0.05854621076531447,0.7476385610754016
1580572350065687104,267,1580572350065687104,world,53.512177325554916,-4.006335118914162,3.0468402865768667,0.0752579273668497,0.6570852098728899,-0.05916575400779412,0.7477130593268932
1580572350180768383,268,1580572350180768383,world,53.548494378235404,-4.015292949883424,3.0484314778430246,0.0759225389584118,0.6568534482324742,-0.059678734844970834,0.7478086425866679
1580572350293673369,269,1580572350293673369,world,53.461097362576425,-4.01104900379312,3.0405406706978084,0.07636061715269298,0.6565857828827706,-0.06069340353070148,0.7479175027472481
1580572350413453603,270,1580572350413453603,world,53.50155890862408,-4.020230959147986,3.041607004449176,0.0769444144478251,0.6564728957027244,-0.06142710935907814,0.7478968019070005
1580572350535070345,271,1580572350535070345,world,53.53778819377132,-4.031446404172041,3.0443418385109027,0.07758684477321279,0.656451204479336,-0.061976059140545964,0.7478042487945814
1580572350649334149,272,1580572350649334149,world,53.56746073375737,-4.0417260655212015,3.046950449166502,0.0781472470734807,0.6567776922378683,-0.06242655560759522,0.7474216208622492
1580572350764091834,273,1580572350764091834,world,53.58427669547896,-4.045214877907759,3.048187641613424,0.07852396468694949,0.6574552847588389,-0.06260954215787279,0.7467708411269725
1580572350882110700,274,1580572350882110700,world,53.58482128451949,-4.042749151064729,3.0528962524962253,0.07877853276781914,0.6579690549772247,-0.062587825334862,0.7462931760920686
1580572350998785295,275,1580572350998785295,world,53.58851852734847,-4.04295380481407,3.0511489406985106,0.07848821761100992,0.6573545373584855,-0.06285822557805111,0.7468423133943862
1580572351113797591,276,1580572351113797591,world,53.59167645302787,-4.043609899627306,3.0510954213404062,0.07828023585693981,0.6564261474744763,-0.06317316011606501,0.7476537782155855
1580572351230401025,277,1580572351230401025,world,53.593759735870705,-4.045139679477064,3.051216779870387,0.07826412763041911,0.6566050004593411,-0.0630714825899658,0.7475069054313319
1580572351345122814,278,1580572351345122814,world,53.59277550592731,-4.044555683484498,3.0505982302622527,0.07845195058009247,0.6567919472406331,-0.062919580866885,0.7473358380542704
1580572351462330124,279,1580572351462330124,world,53.62776093097203,-4.050678994511909,3.0520161911371844,0.07835295300985545,0.6564983370354512,-0.06316402573530933,0.7475835495763045
1580572351576308335,280,1580572351576308335,world,53.62544000504393,-4.048831280910564,3.051668260631672,0.0782722659229666,0.656516202705198,-0.0632672607680925,0.7475675635917813
1580572351693525983,281,1580572351693525983,world,53.625635099937455,-4.049260102705713,3.0518226501797727,0.07834581390717703,0.6565041672093199,-0.06330608146633057,0.7475671051358113
1580572351807838575,282,1580572351807838575,world,53.62415225389471,-4.048173460616795,3.052318141058862,0.07841754237698324,0.6562935317249162,-0.0632911949690481,0.7477458218579276
1580572351926161915,283,1580572351926161915,world,53.62615792254773,-4.049998279420748,3.0525213373776694,0.07846208122621255,0.6560588591910671,-0.06333637443929818,0.7479432435126376
1580572352042292824,284,1580572352042292824,world,53.70351402530298,-4.0647081695913165,3.0549965278470097,0.07835496270826822,0.6558682151999768,-0.06388923695596807,0.7480745434935359
1580572352157963787,285,1580572352157963787,world,53.71068341136976,-4.067372164446464,3.0556119863048252,0.07853859582670851,0.6557364263107981,-0.06418401873660669,0.7481455824943818
1580572352270603361,286,1580572352270603361,world,53.72596052975152,-4.072257105085363,3.0568878954740626,0.07897869180610377,0.6555769604966762,-0.06426955398792436,0.7482316906859139
1580572352391706772,287,1580572352391706772,world,53.747272670552775,-4.076614451619541,3.0569163393954284,0.07944900240036165,0.6553005737610128,-0.06460818003559174,0.748394827930326
1580572352510323498,288,1580572352510323498,world,53.770963177627834,-4.094561682128955,3.0566301913015366,0.07992433192155741,0.6549396926977581,-0.06505696121955461,0.7486212295842379
1580572352622528192,289,1580572352622528192,world,53.79224087370653,-4.096652195885024,3.054493812444605,0.08096477506304901,0.6543779360881748,-0.06530916198556241,0.7489786544999942
1580572352736346557,290,1580572352736346557,world,53.82967059659481,-4.109779993306223,3.0570579065399954,0.08221780077814929,0.6537363631800822,-0.06539633669172204,0.7493946294623668
1580572352848688261,291,1580572352848688261,world,53.87777264416732,-4.128506852262255,3.059874339837279,0.0837449989932617,0.6530991839244332,-0.06562476098354846,0.7497611559597237
1580572352960650055,292,1580572352960650055,world,53.92574481346401,-4.1463022771883224,3.0639122839557444,0.08524973431964791,0.6528664463979781,-0.06587208570660177,0.7497724843643051
1580572353076472558,293,1580572353076472558,world,53.987044435091605,-4.164255199847222,3.0728356407269644,0.08641196268346524,0.6532632563777738,-0.06630682451973853,0.7492553272407959
1580572353188399780,294,1580572353188399780,world,54.02417896026725,-4.175145228577982,3.073838707685127,0.08693791594060157,0.6537653859199917,-0.06715151842704602,0.7486810411403453
1580572353301060351,295,1580572353301060351,world,54.05754624035467,-4.185318881459352,3.075060186581652,0.08725069787690135,0.6539282112291693,-0.06783790560876161,0.7484405716612027
1580572353417716375,296,1580572353417716375,world,54.084331615685215,-4.193588203378649,3.0760983236138486,0.08751822458506556,0.6534847583116838,-0.06841919318510131,0.7487436938458099
1580572353532660425,297,1580572353532660425,world,54.10954036577297,-4.201370681787541,3.076979506316036,0.0878135142486886,0.6530934632438641,-0.06893175281276671,0.7490034237491805
1580572353647402306,298,1580572353647402306,world,54.124360119620405,-4.206233805985146,3.0785943198084453,0.08801674082906846,0.6529108901321136,-0.06944270910256994,0.7490915419192842
1580572353764042042,299,1580572353764042042,world,54.155507910656354,-4.21643258430348,3.080710263454165,0.0882403916180551,0.6527743046664413,-0.07000495341119342,0.7491319520571401
1580572353880430870,300,1580572353880430870,world,54.183735764741726,-4.227774335803364,3.0825887354241956,0.088538775402317,0.6526393291384167,-0.07044403027688602,0.7491732252369246
1580572353992715832,301,1580572353992715832,world,54.20585889521354,-4.235222214112692,3.0843622441613547,0.08882949821390979,0.6525130178771156,-0.07098115617915098,0.7491981272797772
1580572354105881843,302,1580572354105881843,world,54.233008811903005,-4.2445439695005405,3.0857776478420647,0.08906736793210411,0.6524894305098604,-0.07180483768450927,0.749111891476042
1580572354224103175,303,1580572354224103175,world,54.27811740678882,-4.259651439716549,3.087234091501358,0.08929070591265853,0.6525005620633508,-0.07280436319138715,0.7489791717778297
1580572354336055367,304,1580572354336055367,world,54.30561132463569,-4.265397540580047,3.0870583296671725,0.08975383465596398,0.6524375578469512,-0.07380727230289841,0.7488805244113413
1580572354448656418,305,1580572354448656418,world,54.33564921668207,-4.276835119111187,3.0906043669421592,0.09031918118946099,0.6524107646771407,-0.07475415626937666,0.7487419425072284
1580572354559705090,306,1580572354559705090,world,54.36113163324572,-4.286248465106155,3.092519487887472,0.09085151278916445,0.6524577800305227,-0.07589575647711445,0.7485216790246996
1580572354673980848,307,1580572354673980848,world,54.38583850830889,-4.295971370338002,3.0924687279413376,0.09158628843093737,0.6524202208032255,-0.07739873276630949,0.7483109289509821
1580572354787197698,308,1580572354787197698,world,54.45077930214711,-4.320990459601052,3.0924458151787064,0.09233486834517048,0.6522962591451361,-0.07899597453059931,0.7481600922247306
1580572354902826396,309,1580572354902826396,world,54.48707700339784,-4.335552033592265,3.0964659108421415,0.09360926021369552,0.6522802425210434,-0.08020797849896273,0.7478866903643274
1580572355019707858,310,1580572355019707858,world,54.522604614291055,-4.351796139055875,3.100680218290222,0.09503014954854959,0.6522033829485344,-0.08166311744292688,0.7476170353186973
1580572355133898122,311,1580572355133898122,world,54.56239376075132,-4.369432118642997,3.1044220747943996,0.09664382222332318,0.6520172186729756,-0.08338812956727144,0.7473820553261721
1580572355247742641,312,1580572355247742641,world,54.57963994553333,-4.389345150492424,3.1051761933975683,0.09845064993964936,0.6517890923504129,-0.08542861404769435,0.7471147511548192
1580572355358839875,313,1580572355358839875,world,54.61804364459505,-4.404822401764903,3.108876675951933,0.10021276659528484,0.6515064976876769,-0.08733481838919868,0.7469064969240794
1580572355471414391,314,1580572355471414391,world,54.66350462443697,-4.428996811041827,3.11174326972602,0.10230836391188909,0.6512020150261564,-0.08947371691978578,0.7466347415696659
1580572355586444584,315,1580572355586444584,world,54.70930640601986,-4.45318665820696,3.115477317228766,0.10458486634366862,0.6508124186026307,-0.0916035024067861,0.7464007200499799
1580572355701776785,316,1580572355701776785,world,54.75892486870916,-4.48369958940593,3.1190889398937713,0.10725410428627485,0.6504555330824713,-0.09363705361919705,0.7460806480974936
1580572355812145354,317,1580572355812145354,world,54.8258261610699,-4.519051098805463,3.1207851630598498,0.11018641743024189,0.6500853147960338,-0.09643685362168669,0.7456192385058424
1580572355922886274,318,1580572355922886274,world,54.894003156795776,-4.552553085458051,3.1246374029369974,0.11307809630342394,0.6497018802741946,-0.09863632622326905,0.7452326893809889
1580572356036321233,319,1580572356036321233,world,54.959272560867305,-4.592031535929394,3.129999569715551,0.11606005662075833,0.6493358737528214,-0.10125999826808998,0.7447412424869163
1580572356148685152,320,1580572356148685152,world,55.02553456114211,-4.632147743240623,3.1348040878352776,0.11891450134363316,0.6488481856080677,-0.1041394197215097,0.7443187230165779
1580572356260173269,321,1580572356260173269,world,55.09205937860284,-4.6751865689994645,3.138666949449231,0.12192997615608088,0.6483311566964988,-0.10697007343195872,0.7438798182053725
1580572356376349958,322,1580572356376349958,world,55.165264071565645,-4.721221510587931,3.143288764570144,0.12514050466728416,0.6478513237208882,-0.10996112941508562,0.7433283420004572
1580572356487816012,323,1580572356487816012,world,55.240782064544504,-4.763989315570186,3.1493305404666216,0.12890005072639535,0.6472432715767602,-0.1142184878214887,0.742573296512676
1580572356598851487,324,1580572356598851487,world,55.317623280789434,-4.8157486310593,3.152476713954769,0.1321429761083584,0.6465051806078796,-0.11742855808164114,0.7421454066336085
1580572356711795722,325,1580572356711795722,world,55.399235206019625,-4.876340523620819,3.1584287206051442,0.13609365818734148,0.6454971674851854,-0.12033403806324157,0.7418434952021543
1580572356827227851,326,1580572356827227851,world,55.482507063151274,-4.946244784751528,3.1686916830411462,0.1402728224777747,0.6444963306635808,-0.12362906857707252,0.7413931963045778
1580572356944260492,327,1580572356944260492,world,55.57190631562935,-5.023997739562994,3.180108049083543,0.14480247359828535,0.6434276180083824,-0.12773227088050457,0.7407548126704223
1580572357052685473,328,1580572357052685473,world,55.705840382789916,-5.095396524410667,3.2001910814536814,0.15039195128508015,0.6420001475929477,-0.13373346763371005,0.7398198761355969
1580572357164027583,329,1580572357164027583,world,55.793566723792395,-5.174842436412739,3.2099835043710243,0.15544317421094878,0.640508465730551,-0.1386199371152644,0.7391690663291947
1580572357280206827,330,1580572357280206827,world,55.91195655917079,-5.278113878354333,3.2228149632593386,0.16160560177724997,0.6385993355240644,-0.14389341878806,0.7384912101465285
1580572357389276019,331,1580572357389276019,world,56.03752749593505,-5.391979368690443,3.2335647967682064,0.16871750523164825,0.6364815063890864,-0.14932784498178564,0.7376496070315444
1580572357503533836,332,1580572357503533836,world,56.237347094207365,-5.575189120192988,3.2630699156284777,0.17992724614646183,0.6324209819332066,-0.1597066415911818,0.7363177230464498
1580572357615780244,333,1580572357615780244,world,56.4096290086612,-5.738188011629305,3.2834962565888475,0.18791166150741712,0.6304183474961655,-0.16759967887657445,0.7342835531721787
1580572357734424822,334,1580572357734424822,world,56.59526866928721,-5.894536872226439,3.2990478093965976,0.1957340978631977,0.6287394586973801,-0.17564721611935935,0.7317943478717095
1580572357845605186,335,1580572357845605186,world,56.783073695569584,-6.068624700710998,3.3096991798256568,0.2044835155181699,0.6275562956062587,-0.18331154588381518,0.7285303722862776
1580572357955984028,336,1580572357955984028,world,56.974377151426694,-6.2386803742119525,3.319242106420404,0.21247076866252185,0.6259177122330539,-0.19191529869397048,0.7254321832620604
1580572358066924967,337,1580572358066924967,world,57.103970954434544,-6.532959481205637,3.380379093605427,0.22078389651216715,0.6230764941312524,-0.20077811990544306,0.722992586790361
1580572358175657525,338,1580572358175657525,world,57.26985297908175,-6.719560298229055,3.3940063732158876,0.22855140482209502,0.6193150783945264,-0.20924127322944952,0.7214092217562423
