%time,field.header.seq,field.header.stamp,field.header.frame_id,field.pose.position.x,field.pose.position.y,field.pose.position.z,field.pose.orientation.x,field.pose.orientation.y,field.pose.orientation.z,field.pose.orientation.w
1580572319441768038,0,1580572319441768038,world,-0.0,0.0,-0.0,0.0,0.0,0.0,1.0
1580572319564844780,1,1580572319564844780,world,-0.0,0.0,-0.0,0.0,0.0,0.0,1.0
1580572319677966391,2,1580572319677966391,world,-0.0,0.0,-0.0,0.0,0.0,0.0,1.0
1580572319795117308,3,1580572319795117308,world,1.1920928217588455e-07,-5.960466473848494e-08,1.4901140340646543e-08,-3.2030882834988006e-08,1.0348011159067028e-07,-8.773514537097071e-08,1.0
1580572319906971054,4,1580572319906971054,world,0.02982004257796335,-0.025270226221384116,0.6721166704322332,-0.0018144760069438927,-0.0016225336968479218,6.767711298004465e-05,0.9999970346645258
1580572320022625433,5,1580572320022625433,world,0.06393360806207672,-0.03856535277900433,1.3287830716691449,-0.003273972732141816,-0.004245021942771761,-0.001500462024358726,0.9999845101229708
1580572320136519786,6,1580572320136519786,world,0.09942137873773385,-0.05396161578829313,2.000633030191808,-0.005158932498526647,-0.0050176724948342785,-0.002136371926385648,0.9999718215071687
1580572320253043864,7,1580572320253043864,world,0.1230368169092052,-0.06596174358383716,2.6448667693243566,-0.006847255826243691,-0.004685088432019304,-0.0015084605897621754,0.9999644377464739
1580572320364850263,8,1580572320364850263,world,0.1481880317095275,-0.0801895234878997,3.3288059809866986,-0.008108005816271403,-0.003980290826331558,-0.0006442442422639377,0.9999589986144183
1580572320477256495,9,1580572320477256495,world,0.1637256731841784,-0.07786293681605039,3.8961627836491113,-0.009324762395610312,-0.003888723452613083,-0.0002778732638889521,0.9999489249656786
1580572320590934909,10,1580572320590934909,world,0.21418919689969548,-0.0848932506691567,4.61125429939541,-0.010354646940592006,-0.0035110987061506855,-0.0019838517419952894,0.999938255132379
1580572320702435416,11,1580572320702435416,world,0.2475152233481509,-0.08699315364235183,5.262778201800047,-0.011550217149673109,-0.0021298779046668923,-0.003825769218589019,0.9999237031440824
1580572320817899394,12,1580572320817899394,world,0.28043009372841593,-0.09105177131244574,5.921737934745383,-0.012851326413188967,-0.0004191248677926608,-0.004947670000876408,0.9999050900004024
1580572320929296219,13,1580572320929296219,world,0.31647487678865605,-0.08685816418860182,6.636912689770984,-0.014333900108484895,0.0009456431306951919,-0.00495628822279279,0.9998845391374647
1580572321041662867,14,1580572321041662867,world,0.3499429515463871,-0.08505443268146695,7.286654717436368,-0.015868716022517212,0.0012076386780326069,-0.005631814924145743,0.9998574974926016
1580572321153936169,15,1580572321153936169,world,0.38066801921334026,-0.08067301801810667,7.916527758462701,-0.01777666912195488,0.0007386401435784206,-0.006693772284981708,0.9998192996436346
1580572321271371640,16,1580572321271371640,world,0.4168905597143683,-0.07177788945892083,8.542337437699185,-0.01937253180531918,-0.0006632522726062525,-0.0077282572178703985,0.9997822405230405
1580572321383108102,17,1580572321383108102,world,0.4497733062266092,-0.06632244109449437,9.20330977778392,-0.02113102342268049,-0.00038783636024055187,-0.008714660484462407,0.9997386590877685
1580572321496143855,18,1580572321496143855,world,0.48371323170249503,-0.055799593977523765,9.84856308965999,-0.022606277513639292,-0.0016973907078360422,-0.008003964048805042,0.9997109725619572
1580572321608135252,19,1580572321608135252,world,0.5254458673777641,-0.05022044306644313,10.53496200988233,-0.02360204001875846,-0.0006931873496035898,-0.003321713386600244,0.9997156752264553
1580572321720118479,20,1580572321720118479,world,0.5550363360088321,-0.04826282077952748,11.159162146125592,-0.024993428704800605,-0.002819232741689168,-0.004296122983581894,0.9996744087771564
1580572321833345765,21,1580572321833345765,world,0.5869738673894969,-0.023588660497800618,11.799758130357395,-0.025825967385302538,-0.0037102482585264188,-0.008104450396553753,0.9996267158462091
1580572321948206987,22,1580572321948206987,world,0.6131018945914879,-0.005176066206685759,12.434970621074163,-0.02644004843033586,-0.005343792853280906,-0.009536093685619102,0.9995906334655894
1580572322063803207,23,1580572322063803207,world,0.6363750769267706,-0.012536667710138616,13.119297857031313,-0.02694244362010189,-0.005431300533910607,-0.0026824722858753134,0.999618636368262
1580572322177050684,24,1580572322177050684,world,0.6566503760530675,-0.01272953977809188,13.744999982383769,-0.02697613030775743,-0.0050685643397211854,-8.374556355460544e-05,0.9996232276663238
1580572322288938623,25,1580572322288938623,world,0.7088387471246793,0.01683876556218089,14.461764699180762,-0.02689140476865109,-0.0017519869696085415,-0.004088477743404715,0.9996284599315873
1580572322402178156,26,1580572322402178156,world,0.7428761819757196,0.03905891181652732,15.122063321673672,-0.027104698424606725,0.0005639492408232162,-0.00783281905242178,0.9996017542224701
1580572322515545124,27,1580572322515545124,world,0.7724351521899794,0.0377740262511882,15.779752312256752,-0.026513203956404777,0.0011737663743219475,-0.006218723100347457,0.9996284301181877
1580572322635229747,28,1580572322635229747,world,0.807011369465705,0.04505291313918525,16.469038070758845,-0.025857761660457508,0.00037685117362637666,-0.0032936816104657996,0.9996601361664228
1580572322749343362,29,1580572322749343362,world,0.8375541228187084,0.05273331104562162,17.118111681397096,-0.025133509881227426,-0.0006782069565886336,-0.0029972941913104178,0.9996793724676489
1580572322868557850,30,1580572322868557850,world,0.8741734152929563,0.06270085062657349,17.75718797060622,-0.02430992087999125,-0.0005658697695906252,-0.004397619423012171,0.9996946360341429
1580572322983383376,31,1580572322983383376,world,18.854007879352302,-0.06913410157150235,0.12217558127752359,-0.01667760559775977,0.6982159346720468,0.00882548909811974,0.7156385474609315
1580572323097881213,32,1580572323097881213,world,19.508307127729655,-0.0803692386263497,0.10531724360619243,-0.015408882778137003,0.6980041813699944,0.007438600708970636,0.7158893380185483
1580572323213634417,33,1580572323213634417,world,20.172346465732723,-0.09266767517481078,0.08734889148288949,-0.013788237513693114,0.6978802079799515,0.005607721635288814,0.7160598125235859
1580572323325854048,34,1580572323325854048,world,20.883789193396968,-0.0974180620191546,0.06938104779578858,-0.01185335384623329,0.6974630799721991,0.0028110786755127896,0.7165172041706256
1580572323441103666,35,1580572323441103666,world,21.55434015355101,-0.12402239857679015,0.048960110497448195,-0.008915834688223509,0.6977708925318331,-5.24142800510422e-05,0.7162655724501945
1580572323561757324,36,1580572323561757324,world,22.255294255792464,-0.15418616017024006,0.028949919195453422,-0.005326258519611273,0.6985177274912447,-0.003619883277025045,0.7155638023096063
1580572323677012192,37,1580572323677012192,world,22.91258191522798,-0.17944563237032707,0.01000979619672826,-0.0020756983738085336,0.6985756501830144,-0.008188036236492042,0.7154864252010305
1580572323789410814,38,1580572323789410814,world,23.564000945367248,-0.2246212254670874,-0.009543111281932415,0.0017849538955747217,0.6983893163538937,-0.011992885353170623,0.7156154448691718
1580572323904827639,39,1580572323904827639,world,24.23236643678834,-0.275713346493651,-0.027150472366566758,0.005467931305871436,0.6982966779634145,-0.015692277824615602,0.715615548983471
1580572324016867487,40,1580572324016867487,world,24.87555828697025,-0.3297683592792713,-0.049031167619496774,0.009159486896077061,0.6981904539166647,-0.019656880361025024,0.7155836060058754
1580572324132109461,41,1580572324132109461,world,25.54332809893154,-0.3940917414146049,-0.06857190899181731,0.012974368165751165,0.6980682329940847,-0.02321128224799764,0.7155373548783801
1580572324244330010,42,1580572324244330010,world,26.193533852691125,-0.4666513908666925,-0.08590682076243361,0.01718440342348461,0.6983255739479955,-0.02628303355390335,0.7150910997041983
1580572324363373183,43,1580572324363373183,world,26.897411405024922,-0.5469649702605615,-0.10685701041222861,0.020722746961972575,0.6981517800450056,-0.030009218290193058,0.7150204132740692
1580572324474984401,44,1580572324474984401,world,27.542081926427947,-0.6302431895899749,-0.12765450161751613,0.02435687772701069,0.6977796564593116,-0.03343838145066583,0.7151168968436389
1580572324587923107,45,1580572324587923107,world,28.193001329154622,-0.721327647585762,-0.14580380358326384,0.028099386647569176,0.6982810493706189,-0.03613432917481382,0.714358733268157
1580572324701478377,46,1580572324701478377,world,28.913739740223356,-0.812676586795599,-0.1680829035788518,0.031241240650369966,0.6986640809110066,-0.03935304335431084,0.7136833486485544
1580572324814308333,47,1580572324814308333,world,29.563553922755332,-0.9123781983652721,-0.18830979625723643,0.03428309380399554,0.6991745724712314,-0.04126063475405438,0.7129356265561367
1580572324929091784,48,1580572324929091784,world,30.24363150504062,-1.0319877137228795,-0.23736998849680813,0.037259491265632556,0.6995918725793006,-0.04229652647145106,0.7123158999230791
1580572325043042102,49,1580572325043042102,world,30.892632029915077,-1.1351415247675751,-0.26061592270030687,0.03932579748797244,0.6989265206659108,-0.043391420412817495,0.712791969057159
1580572325165041706,50,1580572325165041706,world,31.583762607699395,-1.251090157017555,-0.27666405381558157,0.040709648668396395,0.697818890881666,-0.04361025958522092,0.7137854616738928
1580572325287989165,51,1580572325287989165,world,32.287448957430996,-1.3608761229482118,-0.29753778578513046,0.041061963224939366,0.6967862111245128,-0.04349625539613359,0.7147804190509479
1580572325407042833,52,1580572325407042833,world,32.95417264518335,-1.4673615243904443,-0.3214105605484381,0.04163015152354819,0.6970819433287911,-0.04314458999155584,0.7144804276160802
1580572325525470897,53,1580572325525470897,world,33.6103996355715,-1.5723128362497958,-0.3423966859086729,0.042410367289705125,0.6980572586572726,-0.04268312831787134,0.7135093616681423
1580572325643245035,54,1580572325643245035,world,34.27309422683102,-1.6803129462639732,-0.3581126795302678,0.04299642260883332,0.6993044486023225,-0.04241222068232278,0.712268118603446
1580572325760174061,55,1580572325760174061,world,34.89673293280294,-1.7794923310886257,-0.37647270875126004,0.04364882339086773,0.700508134159629,-0.042055945305271555,0.7110657104750986
1580572325877896594,56,1580572325877896594,world,35.53949872198395,-1.8802265222303949,-0.3890548285358193,0.04471744260413415,0.7010886517822413,-0.040909172219404065,0.7104938925628925
1580572326001252138,57,1580572326001252138,world,36.15167387346247,-1.980019949412478,-0.4068334026074343,0.04539462420013215,0.701201635866661,-0.03986166495219464,0.7103990045479295
1580572326116407515,58,1580572326116407515,world,36.70862079880278,-2.073495696649394,-0.4132744210795183,0.04568318649225109,0.7017470053232907,-0.03847857564610945,0.7099180038042667
1580572326234032512,59,1580572326234032512,world,37.34171928407547,-2.163215525171191,-0.4350610681013771,0.045735506384333234,0.7016953823469421,-0.03669578301990436,0.7100601022090741
1580572326352936220,60,1580572326352936220,world,37.87888044112434,-2.243104954607616,-0.4535945241074746,0.04528418933249152,0.7016095341468107,-0.035559967981791715,0.7102315562725938
1580572326470760511,61,1580572326470760511,world,38.39823753625279,-2.3212378288136355,-0.47058482884734065,0.0445807008578123,0.7026147806695549,-0.034471029290967285,0.7093354504017082
1580572326592520980,62,1580572326592520980,world,38.99591376523971,-2.4046394659273806,-0.49725206230011576,0.044255879241550014,0.7037889214430386,-0.033817214183080146,0.7082223922204257
1580572326711652921,63,1580572326711652921,world,39.47800031825366,-2.479267869713545,-0.5064363316648306,0.04474500168568512,0.7050563039639649,-0.033115343872124996,0.706963182829496
1580572326829472526,64,1580572326829472526,world,39.950293572590006,-2.555665323449937,-0.5211223908635079,0.04609129453818599,0.7061228632598725,-0.031639137680012884,0.705878978514027
1580572326954585348,65,1580572326954585348,world,40.37101154899727,-2.621530401917953,-0.5322584726861113,0.04741044462990399,0.7059800780089455,-0.030690505604007753,0.7059762787183804
1580572327075672115,66,1580572327075672115,world,40.80110877744579,-2.6802453399523767,-0.5506257433045221,0.047178967742476624,0.7048617239720656,-0.03148514850365304,0.7070733579457602
1580572327194220032,67,1580572327194220032,world,41.13004079492424,-2.726485049563723,-0.5624316271026926,0.0462203263598069,0.7036315415962846,-0.032344812828467503,0.7083220948468414
1580572327319019594,68,1580572327319019594,world,41.433420900086105,-2.774060188945837,-0.5737391256925672,0.045884403744730975,0.7029396161353028,-0.03219616395621528,0.7090373794456837
1580572327438931346,69,1580572327438931346,world,41.70471166961853,-2.8098609655487676,-0.5853499084829732,0.04625343369486557,0.7021320910783065,-0.03219189333402203,0.7098133295767618
1580572327557175216,70,1580572327557175216,world,41.91690419490696,-2.842161028475405,-0.5880637272038678,0.04649702751014007,0.7019103635453913,-0.03193324973722002,0.7100282975555144
1580572327675601532,71,1580572327675601532,world,42.09325971047203,-2.8680475497268443,-0.5935269586627827,0.046176577462519436,0.7018403775340436,-0.03203520607113372,0.7101137922833141
1580572327801032092,72,1580572327801032092,world,42.25182853495329,-2.890106533840159,-0.6025197399462359,0.04593930818718593,0.7012124692487957,-0.03219186072076781,0.710742106153332
1580572327917963202,73,1580572327917963202,world,42.35821190567843,-2.9059788178919996,-0.607749234847625,0.04593044838818716,0.7001633035774675,-0.03225563885010991,0.7117734123870678
1580572328034847164,74,1580572328034847164,world,42.44065639922687,-2.9181430979213268,-0.6113298140791876,0.04590964781510616,0.6993911075682034,-0.03227935004626218,0.7125324342272039
1580572328158223608,75,1580572328158223608,world,42.505589873582295,-2.9276609470031385,-0.6144179806642276,0.04582085222981911,0.6986890027710885,-0.03236633502881286,0.7132227293912301
1580572328275246584,76,1580572328275246584,world,42.533418244900425,-2.931536065330528,-0.6213215588857199,0.04567804343937105,0.6979968271110433,-0.0325374027233675,0.71390148242236
1580572328393330229,77,1580572328393330229,world,42.58718797172357,-2.9420888424765135,-0.6269054450545397,0.04558481248682114,0.6974772284608058,-0.03260470456828718,0.7144120377144745
1580572328511970510,78,1580572328511970510,world,42.61998630496697,-2.9473943311082405,-0.6265449580614506,0.045665659998767275,0.6971438094234654,-0.032524463654888404,0.7147358463749973
1580572328633900798,79,1580572328633900798,world,42.62178260666376,-2.944677009881387,-0.6181896698990244,0.04575256586572622,0.696920779774133,-0.032423854133309477,0.7149523042896342
1580572328756424962,80,1580572328756424962,world,42.64010290334948,-2.9502542356627295,-0.6169408090978976,0.045833323155960136,0.6965885643086175,-0.03228328687806135,0.7152771912472572
1580572328878300868,81,1580572328878300868,world,42.678261891552246,-2.954959468566983,-0.6193221399181823,0.04569550098626597,0.6962970098947283,-0.03226953931357416,0.7155704868992765
1580572328998053921,82,1580572328998053921,world,42.712090764820786,-2.9602273727169885,-0.6188483882448628,0.04558344422478236,0.6960274971961627,-0.032168049501855804,0.7158443556178643
1580572329121754598,83,1580572329121754598,world,42.723404117119586,-2.9642346156685946,-0.6181262365646543,0.0457331947104845,0.6958836845028137,-0.0317404026908818,0.7159937067001695
1580572329242973572,84,1580572329242973572,world,42.76939254345181,-2.9704541855338444,-0.6200314168796215,0.04547900894240393,0.6957498390389589,-0.03165936526591332,0.7161435260157551
1580572329361295833,85,1580572329361295833,world,42.81790768375588,-2.976011559343883,-0.6198621248634328,0.045253359200832656,0.6956444605577599,-0.03150032727947746,0.7162671327455866
1580572329481079427,86,1580572329481079427,world,42.87083188969366,-2.982302188112161,-0.6215436732640214,0.04484801622973817,0.6955529975099568,-0.03134329260687261,0.7163883989079827
1580572329596594941,87,1580572329596594941,world,42.925162994253114,-2.9888984518330437,-0.6222996189119225,0.04447255296328792,0.6954520614390323,-0.031118016150782787,0.7165195853836819
1580572329713652368,88,1580572329713652368,world,42.98264792908434,-2.9942928586113595,-0.6225675717078927,0.043960206637365044,0.6953254480924411,-0.031001491740415155,0.7166791606154085
1580572329838235805,89,1580572329838235805,world,43.05407089155068,-3.002978713690652,-0.6244200801862885,0.04347298854177385,0.6952794677676705,-0.03067670568103253,0.7167674482162438
1580572329951559611,90,1580572329951559611,world,43.124955567924644,-3.0110827677488086,-0.6245208963350741,0.043018454274119815,0.6952125906730484,-0.03027486033388558,0.7168768232699874
1580572330066215095,91,1580572330066215095,world,43.201443774693104,-3.020755844497409,-0.6274263171455248,0.04256584333735458,0.6950925776288076,-0.02980178953119187,0.7170399142066256
1580572330181210403,92,1580572330181210403,world,43.27805397914727,-3.03003414428536,-0.6288145375526124,0.042129046764248675,0.6952330750543197,-0.029279288421011018,0.7169510366362224
1580572330296262692,93,1580572330296262692,world,43.35416114847654,-3.038246789529741,-0.6305040878492196,0.041630931913452976,0.6954131872374906,-0.02888402803295388,0.7168215297855648
1580572330410697660,94,1580572330410697660,world,43.41632739094484,-3.0434294179972525,-0.631377752934692,0.04146978596911267,0.6954783440272696,-0.02811855042232451,0.7167980391573482
1580572330530402368,95,1580572330530402368,world,43.486856063846936,-3.049941734298412,-0.6310858571973421,0.04102412042243531,0.695563469727646,-0.027752351317511144,0.7167554318455395
1580572330650735673,96,1580572330650735673,world,43.53246488284608,-3.06019429914636,-0.6313444220234015,0.04044719115945101,0.6956731137094091,-0.02756143776433991,0.7166892030595409
1580572330765136137,97,1580572330765136137,world,43.58616513501243,-3.067032967189803,-0.6310322246731612,0.04003968821198869,0.6957622591187684,-0.027274793407767943,0.7166364838561499
1580572330886316847,98,1580572330886316847,world,43.63005254953397,-3.071551920973806,-0.6327528972004908,0.0397490601191652,0.6960279767034534,-0.02706921553099311,0.716402376636613
1580572331002844525,99,1580572331002844525,world,43.65973971036756,-3.074646780115545,-0.6336210465000063,0.039647193400179,0.6965902037537799,-0.026903121242223958,0.7158676693852221
1580572331116467401,100,1580572331116467401,world,43.66695220264639,-3.0714366737842393,-0.6384354138563069,0.03976967713110299,0.6968123065280807,-0.02669161886610232,0.7156526231223679
1580572331229075869,101,1580572331229075869,world,43.67139666695966,-3.0724981589382816,-0.6381846299683316,0.03979451276415721,0.6962080308345743,-0.02672482865018282,0.7162378610377871
1580572331349919464,102,1580572331349919464,world,43.67713663689135,-3.0744794589385265,-0.6391203910756023,0.039749729304512954,0.6952402311081138,-0.026755534857612173,0.7171786068799192
1580572331464336156,103,1580572331464336156,world,43.68039140783414,-3.0753776829391777,-0.640331648595021,0.039787141366866986,0.6952181257173181,-0.026718524747493765,0.7171993528895056
1580572331580890929,104,1580572331580890929,world,43.680717313672986,-3.0755672352425343,-0.6409691718737927,0.03985237204603126,0.6954158436209131,-0.026624143254670028,0.7170074839507318
1580572331697100653,105,1580572331697100653,world,43.68114334402026,-3.075054481790458,-0.6387440796225974,0.03975757898260878,0.6952036798762772,-0.026708617319242043,0.7172154132339401
1580572331813027805,106,1580572331813027805,world,43.68156007740299,-3.076915914566734,-0.6375570842478204,0.039792920263192984,0.6952422247675273,-0.026612116770784983,0.7171795938093436
1580572331929101834,107,1580572331929101834,world,43.681016312835375,-3.076253304886384,-0.6376014535437582,0.039778969129818445,0.6953615468372676,-0.026647413478945826,0.7170634280823606
1580572332045370828,108,1580572332045370828,world,43.67897710456968,-3.0757263460094677,-0.63704905904883,0.039787651889240654,0.695256573775738,-0.026645813808067544,0.7171647066138602
1580572332167049537,109,1580572332167049537,world,43.68887091306155,-3.072705965749984,-0.6389691639420736,0.039799579849411064,0.6952053930844598,-0.026637789912527993,0.7172140316013712
1580572332281263551,110,1580572332281263551,world,43.68861109397298,-3.073542449465073,-0.6379961103909126,0.039821440301659676,0.6952422281905587,-0.026604536394770815,0.7171783471614238
1580572332397685312,111,1580572332397685312,world,43.68903554890121,-3.0734676243246595,-0.6375997613535898,0.03981710489124975,0.6952028896314733,-0.026603874370232823,0.7172167429229216
1580572332518496508,112,1580572332518496508,world,43.688022258074625,-3.0730377144999697,-0.6372225991124969,0.039805171535373454,0.695236131304229,-0.026640143020011067,0.7171838220073993
1580572332637047329,113,1580572332637047329,world,43.688010015170136,-3.073092196211249,-0.6377246779381274,0.039836397802859344,0.695256481862113,-0.026575886530042617,0.7171647585585548
1580572332752220684,114,1580572332752220684,world,43.688518528470155,-3.0731767464529716,-0.6379662291873203,0.03982859975937709,0.6952255580889121,-0.02662394343765181,0.71719340029016
1580572332871175486,115,1580572332871175486,world,43.69961146468091,-3.0754205896443763,-0.6395579894908536,0.039782726598147335,0.6952477534157457,-0.026674642125836586,0.7171725190536529
1580572332994215815,116,1580572332994215815,world,43.69943332564736,-3.076062722627924,-0.6384164368771863,0.039779528172525454,0.6952524668859048,-0.026677741179135392,0.7171679999000532
1580572333110226134,117,1580572333110226134,world,43.69948682659281,-3.0761249080989783,-0.6387143988889354,0.039802602445319316,0.6952397404718319,-0.026645911118626728,0.7171802275212054
1580572333227886235,118,1580572333227886235,world,43.72318012683262,-3.0796362686002805,-0.6385514802144829,0.03976452011050032,0.6952420850453945,-0.026653853011231327,0.7171797808063446
1580572333350149865,119,1580572333350149865,world,43.725094452941306,-3.0804852426007985,-0.6384094142796908,0.03982202716428109,0.6952519447960143,-0.026575781048053172,0.7171699530090111
1580572333465737680,120,1580572333465737680,world,43.715441820469195,-3.0747066036352955,-0.6349019808844494,0.04008599761440148,0.6952495322428175,-0.02635420034937773,0.717165797451656
1580572333591381739,121,1580572333591381739,world,43.715169474982744,-3.0751333647068932,-0.6339926614774898,0.0400793552201603,0.6952682096768881,-0.026335626215135848,0.7171487178580653
1580572333706632871,122,1580572333706632871,world,43.71656369064951,-3.0753302431272527,-0.634275201828352,0.04006363296466763,0.6952516813651042,-0.026376011153840084,0.7171640521103864
1580572333823223798,123,1580572333823223798,world,43.71647794477096,-3.074988123504494,-0.6340468828138732,0.04005743983541031,0.6952713597596231,-0.026374605661888317,0.7171453829264494
1580572333941405260,124,1580572333941405260,world,43.715546459243484,-3.074936898906542,-0.6341688358366824,0.04006774050255448,0.6952793018994852,-0.02637721708312079,0.7171370195562091
1580572334060159223,125,1580572334060159223,world,43.71737633356186,-3.071614985841033,-0.6345425713586597,0.03986643125262887,0.6952427087668311,-0.02656669661580304,0.7171767369046536
1580572334180985759,126,1580572334180985759,world,43.717816480557545,-3.072599737914003,-0.6335237634473492,0.039918244519927135,0.695262032241547,-0.026506378719925432,0.7171573615961703
1580572334296702121,127,1580572334296702121,world,43.71879769732182,-3.073883257062506,-0.633690426936302,0.03992046627940848,0.6952246923827707,-0.026454666870671713,0.7171953221644592
1580572334418170500,128,1580572334418170500,world,43.7194579716933,-3.0737256229846492,-0.6341050945517139,0.03991108589092141,0.6952517364887127,-0.02650245195200759,0.7171678960111298
1580572334533599490,129,1580572334533599490,world,43.720166626246154,-3.0737897999628796,-0.6341244855715678,0.03992745603367591,0.6952566187213065,-0.026480246833747362,0.7171631171043876
1580572334650524706,130,1580572334650524706,world,43.70335323172978,-3.072918731578908,-0.6346623354781595,0.04002397193911328,0.6952421267070471,-0.026373955320073972,0.7171757084161793
1580572334773110494,131,1580572334773110494,world,43.704887519242156,-3.0728441119088563,-0.6344182046695526,0.04000987220394557,0.6952623909451499,-0.026381180118875976,0.7171565200829757
1580572334891113811,132,1580572334891113811,world,43.70644544017434,-3.072610027831799,-0.6348651993195888,0.03998835061111402,0.695240499014798,-0.026422658848935743,0.7171775160616067
1580572335013795902,133,1580572335013795902,world,43.70712815141203,-3.0735310555288073,-0.634962550772717,0.04002765281098888,0.6952424680441647,-0.026347914246704424,0.717175999301958
1580572335131660570,134,1580572335131660570,world,43.70874585795632,-3.0739162667824758,-0.6352357060233542,0.04004491778073362,0.6952475288495715,-0.026328259634857208,0.7171709503391933
1580572335251356499,135,1580572335251356499,world,43.71116515205323,-3.075135404239167,-0.6357148639083201,0.03991008379798144,0.6952468333100971,-0.026466547694212115,0.7171740254318579
1580572335369266186,136,1580572335369266186,world,43.71189721908107,-3.0756397523581365,-0.634523684684356,0.039948859676455596,0.6952536061428627,-0.026434613679951428,0.7171665246759313
1580572335492642864,137,1580572335492642864,world,43.71223303582738,-3.0755381871521257,-0.6348781471082292,0.03995996145281414,0.6952414323884558,-0.026412743561922917,0.7171784822150531
1580572335608410559,138,1580572335608410559,world,43.712566523613276,-3.0757225521026648,-0.6347208459460045,0.0399739374822449,0.6952477077743638,-0.026418429923895665,0.7171713658930267
1580572335725378489,139,1580572335725378489,world,43.71112710326867,-3.075567223523244,-0.63459473608442,0.039948238331724416,0.6952626418620629,-0.02643006700329233,0.7171579329934556
1580572335840442745,140,1580572335840442745,world,43.717050119787075,-3.0747459706729057,-0.6361057259553675,0.04003491996701152,0.6952706134863106,-0.02636283193613237,0.7171478243888105
1580572335956533766,141,1580572335956533766,world,43.71677439777813,-3.075280948231752,-0.6347281482576621,0.04004720553829758,0.6952714106703917,-0.026316666239705033,0.7171480737291797
1580572336075666060,142,1580572336075666060,world,43.71579312012882,-3.075216335093189,-0.63452057730525,0.040057178512330975,0.6952803398682509,-0.026321232468380387,0.7171386922380599
1580572336190423991,143,1580572336190423991,world,43.71550499695395,-3.075065510645942,-0.6343907101462145,0.040055607377970065,0.6952727250697232,-0.02630959788726913,0.7171465465180582
1580572336306366281,144,1580572336306366281,world,43.71745182960066,-3.0753206288665824,-0.63500692984144,0.04006140086341396,0.695257757840443,-0.02630495131983795,0.7171609561969706
1580572336422006072,145,1580572336422006072,world,43.73018255959917,-3.0786401853525494,-0.6381198299298898,0.040053944690992445,0.695233694946108,-0.026305890705786344,0.717184663488559
1580572336539379593,146,1580572336539379593,world,43.7291590238965,-3.079947804544804,-0.6366164779814412,0.04012201255012613,0.695251562646946,-0.0261921500160206,0.7171676466776524
1580572336655759510,147,1580572336655759510,world,43.72882412429729,-3.0798374192729154,-0.6362375222160059,0.04012000492105333,0.6952528354586497,-0.02619607872375648,0.7171664623424509
1580572336773182955,148,1580572336773182955,world,43.72784751611254,-3.0798086993593206,-0.6361427651436733,0.04011306000097229,0.6952469915377483,-0.026198566656141217,0.7171724047765564
1580572336889354441,149,1580572336889354441,world,43.72839965456937,-3.0798391614057694,-0.6359992872450926,0.040112149648687895,0.6952358426571641,-0.026209085737796015,0.7171828766384989
1580572337015263298,150,1580572337015263298,world,43.71743390192285,-3.0769592659769343,-0.6355827123122593,0.04009724338186492,0.6952377007710251,-0.02622930100251643,0.7171811313387935
1580572337130255591,151,1580572337130255591,world,43.71841317799887,-3.0772579563314855,-0.6346111604350888,0.04011926146137655,0.6952638740546488,-0.02621583391160022,0.7171550760024763
1580572337246008860,152,1580572337246008860,world,43.719105965654116,-3.077577609736589,-0.6345957171791339,0.040106373205538254,0.695268173766532,-0.026214713302725935,0.71715162682002
1580572337367501646,153,1580572337367501646,world,43.72050231329037,-3.077689660329427,-0.6352452048961688,0.04007544058068322,0.6952591632912867,-0.02623332402585834,0.7171613925345699
1580572337485842003,154,1580572337485842003,world,43.720711649600204,-3.0775330576425395,-0.635136797321108,0.04008939383241055,0.6952533717005688,-0.026249221705177756,0.7171656520067123
1580572337600241628,155,1580572337600241628,world,43.72913925767125,-3.0766983421633203,-0.636589508403274,0.039954604402728015,0.6952351599475765,-0.026369814355659882,0.7171863672251679
1580572337719402049,156,1580572337719402049,world,43.727736532400186,-3.0772184377296217,-0.6355041929269749,0.03997508189366145,0.6952430113800371,-0.026357154327607532,0.7171781393865598
1580572337837072621,157,1580572337837072621,world,43.72781671396741,-3.077250582186929,-0.6355971999150798,0.0399901116028117,0.6952643291721006,-0.026337024442905473,0.7171573927633067
1580572337950980148,158,1580572337950980148,world,43.72802243937292,-3.0766440925390883,-0.6357633244381562,0.03996006493198696,0.6952652620545526,-0.026386904725284842,0.717156301912727
1580572338070990765,159,1580572338070990765,world,43.727792481059566,-3.0771317398903726,-0.6357277708509494,0.03998757807594312,0.6952475798485005,-0.026351382053951742,0.7171732982151884
1580572338186327567,160,1580572338186327567,world,43.724435363470505,-3.076314933539657,-0.6360254097559279,0.03999943489279632,0.6952306763052185,-0.026381993231269402,0.7171878631856826
1580572338302265721,161,1580572338302265721,world,43.72664174475831,-3.0770561660011237,-0.6353778359076339,0.040003131595134425,0.6952532183478274,-0.026355127499442414,0.7171667532319799
1580572338421320204,162,1580572338421320204,world,43.72664910265069,-3.077275870955524,-0.6354085501622153,0.0400420134758073,0.6952553734834456,-0.02631876398370544,0.7171638443313809
1580572338540172603,163,1580572338540172603,world,43.72766692860352,-3.07749938635218,-0.6355870857106023,0.04005663053601485,0.6952621138518875,-0.02632444737028374,0.7171562915236659
1580572338655702457,164,1580572338655702457,world,43.72800021945959,-3.0776188680327294,-0.6357932425329924,0.04003341348391753,0.6952539433231977,-0.026329390964330044,0.7171653195610164
1580572338771983118,165,1580572338771983118,world,43.73064344991896,-3.0788984535819948,-0.6358049542885391,0.04006350106322526,0.6952382354976514,-0.026308566057705797,0.7171795938093436
1580572338890001720,166,1580572338890001720,world,43.73149952708808,-3.0795508464418253,-0.6354525369175947,0.04005871379903659,0.6952397728310646,-0.02629533518587546,0.7171789081532559
1580572339009454037,167,1580572339009454037,world,43.73178882303529,-3.079576713053309,-0.6355195253598032,0.04008246734034552,0.6952351423803053,-0.026286880674145568,0.7171823987592398
1580572339124947354,168,1580572339124947354,world,43.732820844397665,-3.0797530455231223,-0.63572921139819,0.040081084861638985,0.6952552863952466,-0.02628301932599506,0.7171630339926843
1580572339237819875,169,1580572339237819875,world,43.732365518510036,-3.0796973134946244,-0.6354440527101488,0.040088175908018026,0.6952593628127667,-0.026289560211141084,0.7171584004999869
1580572339356009102,170,1580572339356009102,world,43.72358214774593,-3.0760329884999704,-0.6358993541897497,0.040114460860727494,0.6952165884673701,-0.026247064573961594,0.7172000385260479
1580572339468063065,171,1580572339468063065,world,43.72247214128329,-3.076398307770729,-0.6345409820776764,0.04010695641178842,0.6952389266755656,-0.02623987198571883,0.7171790951504358
1580572339585505787,172,1580572339585505787,world,43.72148838160377,-3.076222432284741,-0.6341157943960205,0.04011696487761327,0.6952354924164346,-0.026225636693800715,0.7171822948724024
1580572339698479880,173,1580572339698479880,world,43.72078534075641,-3.075715497380278,-0.634089561726916,0.04010472681444536,0.6952270543120166,-0.02625004072448011,0.7171903564462728
1580572339809646958,174,1580572339809646958,world,43.72058726708654,-3.0761206609380096,-0.6341611809573786,0.04011613887724342,0.6952334808137345,-0.026221843733665557,0.7171844557155249
1580572339921933796,175,1580572339921933796,world,43.69052817765679,-3.074254573509135,-0.6366173204805285,0.0400507753013578,0.6952191725572138,-0.02626043747131699,0.7172006306661705
1580572340034911615,176,1580572340034911615,world,43.69061352586802,-3.0745000004453082,-0.6352369170622945,0.04010762940388965,0.6952534774943576,-0.026216225497485063,0.7171657143402632
1580572340147516331,177,1580572340147516331,world,43.69063743762686,-3.07494580391264,-0.6350415675361907,0.040107445517947114,0.6952635645915392,-0.02620289387616618,0.7171565096939178
1580572340261056689,178,1580572340261056689,world,43.69105035320935,-3.0748773040587105,-0.635352727848649,0.04009683600873976,0.6952528104101963,-0.02621676667787205,0.7171670025657678
1580572340381160811,179,1580572340381160811,world,43.69004164131601,-3.0743781468969082,-0.6352635882274011,0.04012042835793452,0.6952373596341812,-0.026194418206326574,0.7171815261093366
1580572340493259221,180,1580572340493259221,world,43.6827357510756,-3.074308291527557,-0.6358751745753866,0.04008494006928611,0.6952172979060357,-0.026233532391466672,0.717201492904422
1580572340606408208,181,1580572340606408208,world,43.68281041745509,-3.0748660041929172,-0.6355199729637357,0.04013053120089355,0.6952184887131238,-0.026163673088623933,0.7172003501788049
1580572340719031629,182,1580572340719031629,world,43.68171828715023,-3.075254882486437,-0.6343758337164918,0.040167248446748724,0.6952467913838847,-0.026113919797519706,0.7171726541083796
1580572340836297762,183,1580572340836297762,world,43.68181406865315,-3.075484180910342,-0.634272163872212,0.04019032301195875,0.6952371580156099,-0.026104666881602897,0.7171810482291777
1580572340949637619,184,1580572340949637619,world,43.68353316991261,-3.0756278656462905,-0.6349655412077082,0.040150522433882396,0.6951387802783549,-0.02613349978073279,0.7172776151069823
1580572341064808317,185,1580572341064808317,world,43.6889856612862,-3.0779530818369203,-0.6372880420096738,0.0400811151960867,0.6949732882380948,-0.02610163754327267,0.7174429723127319
1580572341182246865,186,1580572341182246865,world,43.69624664044899,-3.0781555782499312,-0.6374382159807848,0.04005465862455246,0.694800499339436,-0.026103897571241926,0.7176116553432793
1580572341294872733,187,1580572341294872733,world,43.70371671991572,-3.0790935480176618,-0.6371475407505125,0.040003081845482624,0.6946529085756726,-0.02605089164463039,0.7177593619075877
1580572341406744536,188,1580572341406744536,world,43.71877140928696,-3.080391480868708,-0.6377636237019706,0.039860383454093165,0.6945537826643212,-0.026031392963625444,0.7178639880303382
1580572341521224983,189,1580572341521224983,world,43.73815695366037,-3.0827544234375726,-0.6382387420225957,0.03978112513929021,0.6944987020385953,-0.02588885457027087,0.7179267148735149
1580572341640605580,190,1580572341640605580,world,43.7760394356704,-3.0852665043182492,-0.6430289974734329,0.03944958030807419,0.6944312237295561,-0.025962269000159157,0.7180077202881292
1580572341753572986,191,1580572341753572986,world,43.80522977724338,-3.0885785351468176,-0.6419916466763587,0.039288816432834724,0.6944042196133995,-0.02579613036438788,0.7180486034861847
1580572341867492196,192,1580572341867492196,world,43.819202369423905,-3.0867483321722533,-0.6403486709916049,0.039030191044638854,0.6943633293876791,-0.025712770669323395,0.7181052239087911
1580572341985338550,193,1580572341985338550,world,43.86263433979349,-3.091928394354249,-0.6396569614564482,0.038801226913517735,0.694329079564991,-0.025463056699719218,0.7181596612159994
1580572342098913449,194,1580572342098913449,world,43.91012977174058,-3.0980622861512623,-0.6401498995601598,0.038517889845771244,0.6942672677501632,-0.025178683545486347,0.7182446340970587
1580572342211607631,195,1580572342211607631,world,43.96853852113702,-3.103413734745782,-0.6451633966933183,0.03834566359890397,0.6941706839909697,-0.02493183937682222,0.7183558585831256
1580572342325145986,196,1580572342325145986,world,44.028460066303225,-3.1110398452895067,-0.6465933840926379,0.038098218957948495,0.6941282908390096,-0.024607401460464327,0.7184211559187104
1580572342443293126,197,1580572342443293126,world,44.09201216964534,-3.1198538418402846,-0.6474421033635478,0.03788523242438374,0.6940557911387542,-0.024143649621337544,0.7185182716160782
1580572342555753673,198,1580572342555753673,world,44.13688936769525,-3.123829363762092,-0.6485263825935412,0.03747547773396879,0.6939402594739557,-0.02394153124901939,0.7186580371073918
1580572342671148815,199,1580572342671148815,world,44.20614158181747,-3.1324760927166437,-0.6483390169186904,0.03729863097209885,0.6938394947516046,-0.023524469911382642,0.7187782986916474
1580572342785662124,200,1580572342785662124,world,44.27699899403409,-3.140094213341034,-0.6478040053719223,0.03702256898654976,0.6937291473992483,-0.023181361400897618,0.7189101579771754
1580572342900013148,201,1580572342900013148,world,44.36168405101781,-3.151605635725982,-0.651878358310964,0.03674582801001632,0.6935334380334599,-0.022893812006644382,0.7191223962764195
1580572343014694305,202,1580572343014694305,world,44.44304732326633,-3.161390366849009,-0.6520617857396545,0.03652496562243402,0.693452556201456,-0.0226458887053242,0.7192195519561573
1580572343133556544,203,1580572343133556544,world,44.529858531070026,-3.1712893810262672,-0.653848434918356,0.03634040618136395,0.6933726725221939,-0.022401110024469047,0.7193135457175046
1580572343247976854,204,1580572343247976854,world,44.61742882710719,-3.181984698827719,-0.6543325212763063,0.03609801183978449,0.6933293984925452,-0.022262223894780254,0.7193717237111245
1580572343361595408,205,1580572343361595408,world,44.69047048275856,-3.1835397585148932,-0.6593638196902263,0.03589491516610783,0.6933290465478084,-0.022372027029793847,0.7193788804083001
1580572343477849128,206,1580572343477849128,world,44.78769499292814,-3.1961696977008884,-0.6601186644317529,0.03566291550369099,0.6933614244922784,-0.0223997121256452,0.719358311185301
1580572343590861946,207,1580572343590861946,world,44.88735793113929,-3.209539873108045,-0.6613277067475996,0.035556401789372354,0.6933085140737691,-0.02251275506041475,0.7194110173473046
1580572343704773448,208,1580572343704773448,world,44.99032281046354,-3.222346969585396,-0.6621064828696568,0.035526977891531156,0.6931356706693035,-0.022718031469567284,0.7195726123895446
1580572343825019891,209,1580572343825019891,world,45.052958240685044,-3.23735294711925,-0.6682209202064602,0.035548737754581165,0.6928934055093419,-0.022969329423954736,0.7197968074727255
1580572343938460990,210,1580572343938460990,world,45.16247119490131,-3.2489877767104893,-0.6674507754312922,0.03562767359326749,0.6927989211590354,-0.023429920837119006,0.7198689913769684
1580572344058986110,211,1580572344058986110,world,45.278709677266846,-3.263503875481799,-0.6674362374393983,0.03585476709484691,0.6927814630527352,-0.023824995753840242,0.71986162220202
1580572344171246010,212,1580572344171246010,world,45.38923642317238,-3.278160910352061,-0.6684986459662765,0.03605123202584926,0.692745507944582,-0.024416282897324195,0.7198665901934168
1580572344283652587,213,1580572344283652587,world,45.5008060284959,-3.292933173064756,-0.6696425270070616,0.03647689878906667,0.6927039195135116,-0.024894943345530225,0.7198687222792103
1580572344397167402,214,1580572344397167402,world,45.612190221622924,-3.3089237990321374,-0.6747282358729922,0.036832408176475866,0.6925901461397963,-0.025500046216452726,0.7199389119856763
1580572344510080328,215,1580572344510080328,world,45.72832857769262,-3.3269474370295455,-0.6725344921582064,0.03728907704417339,0.6926865253866915,-0.025981726444131537,0.7198054401130652
1580572344629692410,216,1580572344629692410,world,45.84809011751589,-3.3460885197946,-0.6704741633573477,0.03772876767729893,0.6929276681975315,-0.02646792826728121,0.7195326648743808
1580572344740941131,217,1580572344740941131,world,45.95820693183014,-3.3630721110804274,-0.6715471000531368,0.03827313162575877,0.6931465297122309,-0.026889840723220725,0.7192773957244326
1580572344852264568,218,1580572344852264568,world,46.061282310190286,-3.378648538369384,-0.6736386737453968,0.038839465069094116,0.6933266353266138,-0.027044290094758217,0.719067638118578
1580572344969214555,219,1580572344969214555,world,46.043009587795694,-3.373034925828418,2.18007828605739,0.03531733604690856,0.6709267900706227,-0.03084782225365034,0.7400394072221007
1580572345082119058,220,1580572345082119058,world,46.13134443421994,-3.3870696929017257,2.186544131834556,0.03585408076562397,0.6706258436964785,-0.031226770232162873,0.7402704476698765
1580572345195684040,221,1580572345195684040,world,46.21499524838386,-3.399728143736419,2.1912768093989374,0.036101337041148304,0.6702250304265135,-0.03164331567730194,0.7406036744085562
1580572345305641466,222,1580572345305641466,world,46.93529804507435,-3.4361744478713536,2.0061880415252746,0.03297784244649801,0.6670241485922513,-0.03662376129709291,0.743404304481644
1580572345421939804,223,1580572345421939804,world,47.032477467592,-3.4567648869530725,2.0090731688979693,0.03414872488094806,0.6669810079828365,-0.036379255861287714,0.7434022098293409
1580572345533272517,224,1580572345533272517,world,47.249961440198675,-3.493802531590128,2.0213292043964097,0.03613387078084933,0.6673662955679079,-0.03560350074793303,0.7429999973693735
1580572345646059866,225,1580572345646059866,world,47.34377303414176,-3.513148758488705,2.0262461499841953,0.03816607575690594,0.6676060404870585,-0.03540145077422236,0.7426925546932688
1580572345763557167,226,1580572345763557167,world,47.44070942538633,-3.531246446215393,2.033067275032935,0.03930725597848674,0.6675751237220321,-0.03584602951027109,0.742639584634236
1580572345880720578,227,1580572345880720578,world,47.393427268290424,-3.5242930822354737,2.0344084429714764,0.039812351777799564,0.6676137075220743,-0.037321879988935006,0.7425052865960826
1580572345993725758,228,1580572345993725758,world,47.47974375500063,-3.5392340518834233,2.0405269550184384,0.04041017722373584,0.6676347827908675,-0.0390262850980759,0.7423663676707912
1580572346110213026,229,1580572346110213026,world,47.56480972509923,-3.553225036506106,2.0446819356446166,0.040681941087686635,0.6672928380168341,-0.04057857168278305,0.7425756844726784
1580572346226076960,230,1580572346226076960,world,47.653226123356234,-3.5674687113444934,2.047246759341963,0.041131089851762295,0.6668957996925866,-0.042526249587214265,0.7427985837834056
1580572346339149252,231,1580572346339149252,world,47.722381234578066,-3.5820314808308478,2.0528461136445557,0.041844412422833106,0.6666133307752677,-0.044082778494792786,0.7429215866506467
1580572346453502470,232,1580572346453502470,world,47.792059104778396,-3.594403755311985,2.056995990070595,0.04260969312684919,0.6661591940288673,-0.045500542875741366,0.7431998927217432
1580572346569785868,233,1580572346569785868,world,47.86130236750384,-3.608995291338652,2.0600409566190185,0.043555113387142866,0.665628078385676,-0.046877646418851886,0.7435353237764062
1580572346684743428,234,1580572346684743428,world,47.93037161180709,-3.6222770380099414,2.0634719695596946,0.044535936431243366,0.6652237428642109,-0.04793579311681633,0.7437715891902288
1580572346802226124,235,1580572346802226124,world,47.95817967432619,-3.6380744664307345,2.063655950511924,0.045455878985283624,0.6649192555028733,-0.04907147650668877,0.74391412166348
1580572346914408480,236,1580572346914408480,world,48.02060072007576,-3.652021040242759,2.0680374024454427,0.04659823361056528,0.6646496387539493,-0.050102057099252674,0.7440156406160888
1580572347029045501,237,1580572347029045501,world,48.085384001481046,-3.6649413420547283,2.0726363647354855,0.04754881398909586,0.6643972316085435,-0.051251284138919884,0.7441026773063418
1580572347145243072,238,1580572347145243072,world,48.15137436927394,-3.679463765081607,2.0746839950197327,0.04830897302035303,0.664178530236963,-0.052466265243756326,0.7441642637327927
1580572347256819625,239,1580572347256819625,world,48.214467825535415,-3.696995501042524,2.0813875647138964,0.04912130517732342,0.6640920920953197,-0.05353969413201558,0.7441118189725493
1580572347372947628,240,1580572347372947628,world,48.27491256575016,-3.710265995921553,2.0847511185314005,0.04993726471960034,0.663920154544586,-0.054630525576220425,0.7441316138495369
1580572347489010131,241,1580572347489010131,world,48.337029210232195,-3.722680287601129,2.08712952603004,0.05068606496516233,0.6636735135257716,-0.055703228697021545,0.7442214401295809
1580572347603238034,242,1580572347603238034,world,48.39939254505689,-3.7360727752263347,2.088951463953549,0.05153750698640894,0.6633918149136572,-0.05665435974084367,0.7443423560933556
1580572347718697885,243,1580572347718697885,world,48.46146415805697,-3.7496116603650407,2.0925289435763297,0.05246203277771716,0.6631081809015288,-0.05744789544709005,0.7444696374879972
1580572347833630359,244,1580572347833630359,world,48.49239926038669,-3.766806698674488,2.094656766521922,0.0533438227364789,0.6627691182815774,-0.05831710703085729,0.744641313293153
1580572347949213022,245,1580572347949213022,world,48.55436737367047,-3.781189013854286,2.0974527513008354,0.054282632049204825,0.6623361863918287,-0.059189440235269584,0.7448897908447158
1580572348065975326,246,1580572348065975326,world,48.618631190024956,-3.79509598249345,2.1009169765733446,0.05521733739542929,0.6620070575222875,-0.06021154625643274,0.7450317493816421
1580572348180891539,247,1580572348180891539,world,48.684910570284075,-3.808423502790527,2.103639634863157,0.056255703482644824,0.6617129958154084,-0.06118031577082653,0.745136385729084
1580572348297048992,248,1580572348297048992,world,48.74934948881037,-3.821846218410043,2.1072537374188727,0.05726164058656137,0.6613868040386534,-0.06220774677288803,0.7452642513148678
1580572348409430544,249,1580572348409430544,world,48.79482826419388,-3.8434695208071794,2.1139466443759574,0.05821321544702979,0.6612306051845909,-0.06318875335734424,0.7452466759714743
1580572348533555897,250,1580572348533555897,world,48.8623891671856,-3.858594896042412,2.116637077612168,0.05935873106463885,0.6611551848152989,-0.06412871062751717,0.7451428650197598
1580572348665136505,251,1580572348665136505,world,48.93164292731302,-3.874784336559115,2.1205038181032734,0.060771410123264265,0.6608777666343869,-0.06522171520985108,0.7451802598249104
1580572348780259679,252,1580572348780259679,world,48.98925806023435,-3.888464018583033,2.125628607545025,0.061883360512860815,0.6606125075321129,-0.06622543166158047,0.7452354587267518
1580572348902693287,253,1580572348902693287,world,49.043859635400835,-3.9106003649292873,2.1279555620191104,0.06272271357838662,0.6604552743978601,-0.0670707062992052,0.7452289502479993
1580572349017046789,254,1580572349017046789,world,49.09341202668685,-3.9239256840848213,2.1335134225747368,0.06349801869514918,0.6603537821893459,-0.0680180901632002,0.7451674318184532
1580572349137436743,255,1580572349137436743,world,49.14507390417009,-3.936384715402495,2.138780806614875,0.06438684888610488,0.6602207327814356,-0.0687834227017787,0.74513875547619
1580572349251319812,256,1580572349251319812,world,49.19785326845239,-3.950478390661491,2.1398093743787143,0.06530019482763,0.6599751254005727,-0.06950911151675565,0.7452095544442643
1580572349368718759,257,1580572349368718759,world,49.249908363847936,-3.9626399073227905,2.1414750231253947,0.0660784312085504,0.6597734791608704,-0.07019835017172149,0.7452549138404626
1580572349483825845,258,1580572349483825845,world,49.24582845700053,-3.9765361595257946,2.144924443245401,0.06700985296654184,0.6595404116076875,-0.07063252948544903,0.7453369376536702
1580572349607567706,259,1580572349607567706,world,49.29273209052916,-3.9872603567570355,2.1492588154803656,0.0680358698381476,0.6592860369108581,-0.07112558734632315,0.7454221808704192
1580572349721768894,260,1580572349721768894,world,49.33495484515072,-3.9986308124260628,2.1529992527181037,0.06903402435258617,0.65901264303311,-0.07139726605744903,0.7455461899451337
1580572349836279267,261,1580572349836279267,world,49.39265266867699,-4.010972856486388,2.157896081777892,0.0697545607672901,0.6587410612919841,-0.0722055747764733,0.7456412416081752
1580572349950450712,262,1580572349950450712,world,49.429143059470505,-4.021181341804219,2.158963842771186,0.07052493744061525,0.6584843225727504,-0.07277897234712952,0.7457398379097379
1580572350065687104,263,1580572350065687104,world,49.459905641782186,-4.031086819530124,2.158862434306286,0.07123536110401592,0.6582535085476017,-0.07344821896917757,0.7458104499488862
1580572350180768383,264,1580572350180768383,world,49.493517732319134,-4.0398528762339865,2.1592761787684367,0.07183771007177249,0.6579798964176271,-0.07402416516341057,0.7459371911804558
1580572350293673369,265,1580572350293673369,world,49.530458953512294,-4.051394552813726,2.1609540111672914,0.07243019195290787,0.6577342569855911,-0.07468156199881784,0.7460309945921284
1580572350413453603,266,1580572350413453603,world,49.58369317952108,-4.065751075362581,2.1616818521644348,0.0729882538122843,0.6576144658616927,-0.07544198807819338,0.7460056472608035
1580572350535070345,267,1580572350535070345,world,49.62094315354912,-4.0766353867776886,2.164191140022865,0.07351702240837928,0.6575694571681934,-0.0760958970900725,0.7459270430855921
1580572350649334149,268,1580572350649334149,world,49.645974114918516,-4.085318130573636,2.1673545280178246,0.0741520923963432,0.6578800050686666,-0.07652280812340109,0.7455465297224486
1580572350764091834,269,1580572350764091834,world,49.66419912641956,-4.089364689699961,2.1681112027565774,0.07461725121766455,0.6585435919322058,-0.07659700677321908,0.7449063744054979
1580572350882110700,270,1580572350882110700,world,49.665488618955166,-4.0904824706904055,2.1676998649282098,0.07474795183873213,0.6589702205394548,-0.07660706233129055,0.7445148318102611
1580572350998785295,271,1580572350998785295,world,49.67531600390441,-4.097298693039765,2.1636332555965794,0.07441292507462625,0.658299071412277,-0.07692120440446985,0.7451094980705535
1580572351113797591,272,1580572351113797591,world,49.67725688773666,-4.096926801414096,2.165241076287657,0.07414076561657738,0.6574669472103337,-0.07730229336364729,0.7458315683233876
1580572351230401025,273,1580572351230401025,world,49.679734754202315,-4.096320915075296,2.1658920215861315,0.07419215491804859,0.6576501052858594,-0.0771731132656847,0.7456783216616744
1580572351345122814,274,1580572351345122814,world,49.680839831398686,-4.095892851787191,2.165592535164649,0.07433465884213619,0.6578349083775215,-0.0770927404324336,0.7455094331199534
1580572351462330124,275,1580572351462330124,world,49.68067909905065,-4.09630465668965,2.164973156968358,0.07433730571622554,0.6575365489200026,-0.07713941244460629,0.7457675320530329
1580572351576308335,276,1580572351576308335,world,49.670957977873314,-4.094611423808743,2.167730400411557,0.07434096559744177,0.6575942177051277,-0.07711106244220517,0.7457192164943438
1580572351693525983,277,1580572351693525983,world,49.67430090237235,-4.09419900151007,2.1678313910484803,0.07443234023162673,0.657571606070913,-0.07720432355323605,0.7457203854561022
1580572351807838575,278,1580572351807838575,world,49.67886821737335,-4.09323964712468,2.1662224894728297,0.07445892777630263,0.6573714250749755,-0.07727342592263209,0.7458871285699226
1580572351926161915,279,1580572351926161915,world,49.68642753921486,-4.0951654593738915,2.1660748496881297,0.07450162664124281,0.6571078766086409,-0.07735505361994612,0.746106552094078
1580572352042292824,280,1580572352042292824,world,49.71251519262316,-4.103216533759369,2.166120670295811,0.07453648864798905,0.6569239095694824,-0.07771262422885801,0.7462278914571209
1580572352157963787,281,1580572352157963787,world,49.73050173289991,-4.108600474177159,2.166954057985663,0.07472603337561519,0.6567660990204449,-0.07801985799941377,0.7463158082300104
1580572352270603361,282,1580572352270603361,world,49.75185770810677,-4.1149795314355195,2.1684583217100055,0.07511099262651905,0.656581981872858,-0.07824001154849014,0.7464161520802817
1580572352391706772,283,1580572352391706772,world,49.77299800994422,-4.127551909722648,2.171652122596612,0.0755298277001272,0.656352382371965,-0.07843586819984505,0.7465552056372569
1580572352510323498,284,1580572352510323498,world,49.80313479106269,-4.135804328528323,2.1703605775893777,0.07621591382237189,0.6559201459800549,-0.07869337463670725,0.7468381633213598
1580572352622528192,285,1580572352622528192,world,49.8330296835866,-4.147571925636875,2.1703486291439162,0.07708395244364222,0.6553591662526833,-0.07903709370323277,0.7472052358822175
1580572352736346557,286,1580572352736346557,world,49.87032518023895,-4.1616947512269675,2.173304053764298,0.0782862835069875,0.6547413246392499,-0.07915443075723998,0.7476093217717087
1580572352848688261,287,1580572352848688261,world,49.901303619653135,-4.181685467106689,2.180423870232687,0.079853524169314,0.6541262318443355,-0.0792335825125891,0.7479734857878249
1580572352960650055,288,1580572352960650055,world,49.948771311777534,-4.196818850599257,2.1831423653055992,0.08131193658836716,0.6538876733267289,-0.07962398183425237,0.7479835264309453
1580572353076472558,289,1580572353076472558,world,49.993651049355805,-4.211082343730041,2.1864750311942203,0.0824298945509158,0.6541706059913537,-0.08010271956332148,0.7475624806946528
1580572353188399780,290,1580572353188399780,world,50.027520874481326,-4.218782413314276,2.1883498525236575,0.08299584731165668,0.6546973150599712,-0.0809858561354193,0.7469434443439891
1580572353301060351,291,1580572353301060351,world,50.05589470917428,-4.228308689312435,2.191376234739721,0.08337799994400522,0.6548820617024766,-0.08157751612571892,0.7466744764237464
1580572353417716375,292,1580572353417716375,world,50.08358076625353,-4.234705075661381,2.1933488034453887,0.08360556140114014,0.6544367086366077,-0.08224549444730311,0.7469661066518978
1580572353532660425,293,1580572353532660425,world,50.107487951209805,-4.24066972013825,2.1965450354501,0.0840112099531256,0.6540581251430616,-0.08265574430510654,0.7472069110526756
1580572353647402306,294,1580572353647402306,world,50.13417811199736,-4.25076538292155,2.1981928329335574,0.08412232794424286,0.6538702863804738,-0.08321875982819754,0.74729626797643
1580572353764042042,295,1580572353764042042,world,50.16396274456494,-4.261556530281087,2.199517996812773,0.08440359067036073,0.6537172781858861,-0.0837025021218127,0.7473444417016754
1580572353880430870,296,1580572353880430870,world,50.1929828357282,-4.273694174941962,2.2016667376813643,0.08470851014784773,0.6535636038940508,-0.0840937628682728,0.7474004676666307
1580572353992715832,297,1580572353992715832,world,50.222183640790604,-4.287451419739579,2.2024473445901833,0.08498193753299053,0.6534149031408106,-0.08462188601268218,0.7474397929928591
1580572354105881843,298,1580572354105881843,world,50.2518867700355,-4.296681795953219,2.204202832266219,0.08526561148221937,0.6533995064853175,-0.08541153879113829,0.747331062638284
1580572354224103175,299,1580572354224103175,world,50.285548398335266,-4.3058513914264225,2.206361506083084,0.08558161617529451,0.6533973870062781,-0.08629521918040385,0.7471952844945751
1580572354336055367,300,1580572354336055367,world,50.316942683263164,-4.314885211525684,2.2078049068850873,0.08604307670107081,0.6533162220911499,-0.08725795728290496,0.7471014477593353
1580572354448656418,301,1580572354448656418,world,50.346551123604684,-4.327599015211895,2.2111224923518478,0.0865164275594166,0.6532914485347231,-0.08830176159431198,0.7469457983833255
1580572354559705090,302,1580572354559705090,world,50.38533314188507,-4.341280192779752,2.211344719121115,0.08698711802280326,0.6532871717808065,-0.08958763649111241,0.7467417075313256
1580572354673980848,303,1580572354673980848,world,50.4178980639783,-4.355016575804299,2.2122477934793494,0.08762260714615802,0.6532264162628477,-0.0911044053008335,0.7465371017958058
1580572354787197698,304,1580572354787197698,world,50.445865923540424,-4.368078635321911,2.213255857384297,0.08849406157191922,0.6531387654247306,-0.09265024808067333,0.7463207099392056
1580572354902826396,305,1580572354902826396,world,50.477307289874574,-4.379960265254091,2.21692634724792,0.08973447778208331,0.6530920070406505,-0.0939232568140392,0.7460543037891725
1580572355019707858,306,1580572355019707858,world,50.51542556364495,-4.396558804912583,2.221279731077175,0.09110893703617923,0.6529811852438363,-0.09547586110744447,0.7457875926804821
1580572355133898122,307,1580572355133898122,world,50.553387136766645,-4.421816684931894,2.2255062038562983,0.09275216065659898,0.6527570861866268,-0.09701432750739737,0.7455825952045384
1580572355247742641,308,1580572355247742641,world,50.594630869181856,-4.442978824374688,2.228237447688315,0.09451695811308031,0.6524812260678412,-0.0988407535782346,0.7453625476276157
1580572355358839875,309,1580572355358839875,world,50.63730072141789,-4.464118904812011,2.2325517700217574,0.09630447509575556,0.6521650050778413,-0.10090250029279357,0.745134185957093
1580572355471414391,310,1580572355471414391,world,50.6860082571628,-4.490590015231575,2.2359870159716024,0.09841374230723639,0.6518349368747077,-0.10296050067404944,0.7448657850363508
1580572355586444584,311,1580572355586444584,world,50.73472385362922,-4.516011039745116,2.2395434283636177,0.10068978844771184,0.6513938004625608,-0.10515444241976565,0.7446410331363953
1580572355701776785,312,1580572355701776785,world,50.79217538525964,-4.545575895342566,2.2418837084900076,0.10318987594685362,0.6509731978345875,-0.10759339378516007,0.7443181924899364
1580572355812145354,313,1580572355812145354,world,50.84654085691463,-4.578107506973197,2.2466790651586734,0.10602130090181666,0.6506016213469727,-0.10985914928703336,0.7439139514020467
1580572355922886274,314,1580572355922886274,world,50.90501252304986,-4.613527122089096,2.2507860502725237,0.10888018992393689,0.6502017707256996,-0.11230261774672484,0.7434856606205721
1580572356036321233,315,1580572356036321233,world,50.96639250682301,-4.6526972151010355,2.2557443933016543,0.11182286400484061,0.6497715777747282,-0.1149307972085334,0.743023201103365
1580572356148685152,316,1580572356148685152,world,51.02452281269177,-4.689664064283271,2.2607651873789223,0.11481579240504597,0.6492302106434192,-0.11803300718795237,0.7425535202966784
1580572356260173269,317,1580572356260173269,world,51.08648855539357,-4.7297151983730075,2.265434472990705,0.11786467516054247,0.6486681133431874,-0.12088105531825914,0.7421087925988279
1580572356376349958,318,1580572356376349958,world,51.172342206748795,-4.779253849831072,2.265755757730318,0.12109805181799663,0.6480205357915731,-0.12415376942305495,0.741613406955027
1580572356487816012,319,1580572356487816012,world,51.24150535832746,-4.823556265358093,2.271364698908286,0.12457360744672377,0.6473154431846597,-0.1273885432676391,0.741104842120458
1580572356598851487,320,1580572356598851487,world,51.31395556017216,-4.873148906758736,2.2787786549681925,0.12801057930884502,0.6464875899291803,-0.1303566016632384,0.7407254726328709
