%time,field.header.seq,field.header.stamp,field.header.frame_id,field.pose.position.x,field.pose.position.y,field.pose.position.z,field.pose.orientation.x,field.pose.orientation.y,field.pose.orientation.z,field.pose.orientation.w
1580572323561757324,17,1580572323561757324,world,0.6340901466423976,-0.42576726316986646,12.555561337297243,0.015452968525693741,0.0005068300285636435,0.0014013207569920764,0.9998794870477395
1580572323789410814,18,1580572323789410814,world,0.7060782573278709,-0.5438817949268586,13.89229639000158,0.026324053584966797,0.0004592743618092589,0.0011041444461157874,0.9996527426503499
1580572323904827639,19,1580572323904827639,world,0.7422867084660554,-0.6149477785388577,14.553254385625161,0.03151265862537321,0.0004107202489369021,0.0006821875799296314,0.9995030345455627
1580572324016867487,20,1580572324016867487,world,0.776092625997082,-0.6920262761478215,15.213066967863034,0.03682795156892339,0.0004612184194710817,0.0007187618896676362,0.9993212601823293
1580572324132109461,21,1580572324132109461,world,0.819342024700576,-0.7837031862301486,15.895103374726606,0.042032282944336585,0.000314503247411701,0.0013442841494105437,0.9991152992412349
1580572324363373183,22,1580572324363373183,world,0.8907861424197316,-0.9760357231258175,17.217363403148557,0.05220188999129388,0.0008579001052903563,0.0021101041268329224,0.9986339566847008
1580572324474984401,23,1580572324474984401,world,0.9278010892276807,-1.0821142460406126,17.88399658556772,0.05730327058669676,0.0005916097808184037,0.0016538029409408337,0.9983552728740771
1580572324587923107,24,1580572324587923107,world,0.9609412256254526,-1.1934107523710693,18.520078514839327,0.061758079200896605,0.0015166946580475412,0.0022729619744102317,0.9980874025361641
1580572324814308333,25,1580572324814308333,world,1.0286716436822925,-1.4347643619883028,19.813334976100627,0.0695324906959882,0.003248593075409173,0.0044356831925663545,0.9975645389090311
1580572324929091784,26,1580572324929091784,world,1.063356706045119,-1.5610501145168412,20.45118487940682,0.07248600923463606,0.0034341160304693944,0.004925691990369068,0.9973513499500335
1580572325043042102,27,1580572325043042102,world,1.094387270604516,-1.6827311533528038,21.05573161053656,0.07468491780845755,0.0027128986021698553,0.005827542453258494,0.9971864653211083
1580572325287989165,28,1580572325287989165,world,1.1683512189045202,-1.9387326643420253,22.336377344665,0.07614048716272452,-0.0003148016453178327,0.006868497673793041,0.9970733911539609
1580572325407042833,29,1580572325407042833,world,23.03206755144084,-1.1785117072123823,-0.40289210555400157,0.03956825697765489,0.6937566899013885,-0.04064419925078873,0.7179722413319575
1580572325525470897,30,1580572325525470897,world,23.636181261486414,-1.27158618574507,-0.4113151944518192,0.04040220774385465,0.6948025467289862,-0.04015795123898392,0.7169410498205879
1580572325760174061,31,1580572325760174061,world,23.46238946945409,-1.434161657593183,-0.16707798353812997,0.040670551173393285,0.7004692008548639,-0.039920721218317114,0.711403651996228
1580572325877896594,32,1580572325877896594,world,24.084006710584582,-1.535789523394591,-0.17864029643294455,0.04174861843140579,0.7009921140015215,-0.038606156273533906,0.7108985659659294
1580572326001252138,33,1580572326001252138,world,24.692737918657514,-1.6320192216608858,-0.19326990108762843,0.042594063606136504,0.7011264601021677,-0.03734426014981104,0.7107832605078157
1580572326116407515,34,1580572326116407515,world,25.24441051802283,-1.7151688848249915,-0.20539554436908247,0.04289757875979312,0.7015964311137527,-0.035991766976653024,0.7103710223289122
1580572326234032512,35,1580572326234032512,world,25.81042097089237,-1.7848907753092091,-0.2185776528870722,0.04264539719525488,0.7016499609257958,-0.034653659027945566,0.7103998226022177
1580572326470760511,36,1580572326470760511,world,26.876815716525574,-1.9364563588214196,-0.25472826663002035,0.041401416879599,0.7025399717090296,-0.03247863508560588,0.7096962205694561
1580572326592520980,37,1580572326592520980,world,27.387068052959947,-2.007646888569715,-0.27000601612215114,0.04103249286143213,0.703794535805992,-0.03177285854551109,0.7085055791639228
1580572326711652921,38,1580572326711652921,world,27.872336183080556,-2.077798007189239,-0.2810701522661665,0.04155796076171828,0.7050620707124149,-0.03106761803507784,0.7072448302498385
1580572326829472526,39,1580572326829472526,world,28.36764741626646,-2.1497056258871647,-0.2964299731467044,0.04251952600614569,0.7061879467343417,-0.030208778473341493,0.7061007261765218
1580572327075672115,40,1580572327075672115,world,29.178677786571175,-2.2735192005913945,-0.32188288026466605,0.04431686798098548,0.7048395866949162,-0.028961208017429046,0.7073884556931934
1580572327194220032,41,1580572327194220032,world,29.51251460360944,-2.3132862690884175,-0.3366467196173888,0.04304728279370283,0.7035735025799343,-0.030286778601473795,0.7086705966315957
1580572327319019594,42,1580572327319019594,world,29.80972365325546,-2.353422175386073,-0.3480664072321362,0.04248268707504069,0.7028842713712488,-0.030472173050282547,0.7093802993845346
1580572327438931346,43,1580572327438931346,world,30.09655389700127,-2.392540766848246,-0.3459413698997169,0.04318172300437698,0.7022235126789564,-0.030017226616357678,0.7100116758830457
1580572327557175216,44,1580572327557175216,world,30.312685157217473,-2.423984415238724,-0.35232779604382714,0.04346181737699601,0.7019396659613133,-0.02973267509297813,0.7102871110157309
1580572327801032092,45,1580572327801032092,world,30.60537426055208,-2.4629012097270753,-0.3593407074864565,0.04279345372446827,0.7012907731386446,-0.03011180303102842,0.7109524023149986
1580572327917963202,46,1580572327917963202,world,30.715282302857112,-2.478738043319175,-0.364217224703558,0.04288135590455699,0.7002384983277338,-0.030091050422784375,0.7119843457435225
1580572328034847164,47,1580572328034847164,world,30.798414830903713,-2.4906771234241667,-0.36880442636665123,0.04280938215760492,0.6994339282161101,-0.03008795027150767,0.7127793212119283
1580572328275246584,48,1580572328275246584,world,30.910196173655464,-2.50640110512661,-0.3737602180453399,0.042637933916434695,0.6980584720369641,-0.0302190873059097,0.714131057336305
1580572328393330229,49,1580572328393330229,world,31.03468838449309,-2.5183035157442752,-0.39937631291038755,0.04247103628217535,0.6973848363669138,-0.030555260807638176,0.7147846301703549
1580572328511970510,50,1580572328511970510,world,31.068757844895558,-2.5230572954474653,-0.40001375829856745,0.04252417780207758,0.6970590377791632,-0.03053653228143611,0.7150999871113536
1580572328756424962,51,1580572328756424962,world,31.13424155946202,-2.532325691508781,-0.4021241354503582,0.04243406707124948,0.6964545495431628,-0.030514052648784738,0.7156949837792799
1580572328878300868,52,1580572328878300868,world,31.169395032446914,-2.536655645020857,-0.4024389154120671,0.04235925227935929,0.6961684655429052,-0.030402973816218943,0.7159824994255395
1580572328998053921,53,1580572328998053921,world,31.20229281088693,-2.545095267141959,-0.40436159074851385,0.042293482291104974,0.6959594787106157,-0.03019597781073526,0.7161982268616949
1580572329121754598,54,1580572329121754598,world,31.238925322766555,-2.549517468660963,-0.4049051457754098,0.042150093166350766,0.6957703331404923,-0.03017279500322213,0.7163913837583514
1580572329361295833,55,1580572329361295833,world,31.325349157371562,-2.560741774049629,-0.40521696412063246,0.04175099516532048,0.6955539825978533,-0.0298111387438954,0.7166399667076249
1580572329481079427,56,1580572329481079427,world,31.377942065511697,-2.5662964438770963,-0.4059134342974211,0.04137602385215727,0.6954631413166539,-0.029642333021813516,0.7167569287054696
1580572329596594941,57,1580572329596594941,world,31.40909220692689,-2.5707974958538182,-0.40673941513865053,0.04091611711039369,0.6953324239642037,-0.029501196479435957,0.7169158899108015
1580572329838235805,58,1580572329838235805,world,31.53795652807595,-2.585294332321012,-0.4101661680794493,0.04003210249534818,0.6952023724099997,-0.02890109910240757,0.7171164068086534
1580572329951559611,59,1580572329951559611,world,31.611411220290755,-2.592957146196312,-0.4116102394333465,0.03960179326990148,0.6951241140468574,-0.028473311373525396,0.7172331976200594
1580572330181210403,60,1580572330181210403,world,31.761925857616724,-2.6100305458449027,-0.414663053900056,0.0386919352919046,0.6951319343300691,-0.027509947450820076,0.7173128895237939
1580572330296262692,61,1580572330296262692,world,31.834664245959758,-2.6177589541505446,-0.41538980789876945,0.03819368073518962,0.6953170467881711,-0.02710480550446105,0.7171755837508094
1580572330410697660,62,1580572330410697660,world,31.906344761518426,-2.6258000876940226,-0.415234695112602,0.03778348160958176,0.6953964697703174,-0.02658660081977406,0.717139658443811
1580572330530402368,63,1580572330530402368,world,31.980668002032818,-2.633514333655108,-0.41687376798814313,0.03735284334781025,0.695448895775312,-0.026210141424408768,0.7171252795054806
1580572330765136137,64,1580572330765136137,world,32.107895183183494,-2.64826462001602,-0.4220072792981675,0.03665871164925415,0.695640164217629,-0.02546447311603052,0.7170024338013217
1580572330886316847,65,1580572330886316847,world,32.14965567984255,-2.6530802412827965,-0.42421199322860215,0.036387261319630854,0.6958967851952381,-0.025238973015459014,0.7167752026184195
1580572331116467401,66,1580572331116467401,world,32.18203435541564,-2.6570474919971305,-0.4245311380551122,0.036310570629993065,0.6967150271234901,-0.02493054323111819,0.7159945703918623
1580572331229075869,67,1580572331229075869,world,32.1820922331643,-2.6568240228607793,-0.4260965320059702,0.03627099811834678,0.6960590834906567,-0.02504377873772385,0.7166303810278245
1580572331349919464,68,1580572331349919464,world,32.17675409678989,-2.6564478627013317,-0.426623903968518,0.03623948729099447,0.6950897992639712,-0.0250657711301722,0.71757134946761
1580572331580890929,69,1580572331580890929,world,32.18027295075968,-2.6578336245746836,-0.42670209996619146,0.03643812779446895,0.6952917265086564,-0.024888310914815037,0.7173717386796742
1580572331697100653,70,1580572331697100653,world,32.179767406233616,-2.6577116421053706,-0.42637137988613194,0.03641337211827106,0.6950645860060456,-0.02493011730931289,0.7175917622573953
1580572331929101834,71,1580572331929101834,world,32.17868826237522,-2.657706085549548,-0.4262458053498257,0.03639923822488239,0.6952021518242054,-0.024923920041152063,0.7174594114367009
1580572332045370828,72,1580572332045370828,world,32.17795731318509,-2.657509650571602,-0.4262178106894785,0.03640921799706625,0.6950912849222494,-0.024938264833799597,0.7175657425976537
1580572332167049537,73,1580572332167049537,world,32.17119673244582,-2.657408970098727,-0.4276895433198211,0.036403160130090685,0.695105768877382,-0.024897619612870302,0.7175534488627789
1580572332397685312,74,1580572332397685312,world,32.16896219432179,-2.6571784883929714,-0.42806661159037684,0.036399375522353374,0.6950689035707558,-0.02490503151744397,0.7175890627356047
1580572332518496508,75,1580572332518496508,world,32.16893105954382,-2.656968002671218,-0.42730906924770373,0.03640120834287972,0.6951037049223538,-0.024918094847245626,0.7175548506083907
1580572332752220684,76,1580572332752220684,world,32.16704463216743,-2.656676343415568,-0.4271026980776478,0.036422459247037846,0.6951013934187569,-0.024899013283325305,0.7175566365321662
1580572332871175486,77,1580572332871175486,world,32.16593479563924,-2.6539301970980205,-0.42515501831678737,0.03645088488100912,0.6951004213218251,-0.024864410964851223,0.7175574256598604
1580572333110226134,78,1580572333110226134,world,32.16511054275402,-2.654321612524127,-0.42536028801791304,0.03646698411897468,0.6950711412695506,-0.02484403974284863,0.7175855948734792
1580572333227886235,79,1580572333227886235,world,32.16582343742724,-2.6542653179082247,-0.4251014776378472,0.036445024891771156,0.6951026520130856,-0.024868585837358476,0.7175553801560203
1580572333350149865,80,1580572333350149865,world,-0.0,0.0,-0.0,0.0,0.0,0.0,1.0
1580572333465737680,81,1580572333465737680,world,-0.0,0.0,-0.0,0.0,0.0,0.0,1.0
1580572333941405260,82,1580572333941405260,world,1.1920928217588455e-07,-5.960466473848494e-08,1.4901140340646543e-08,-3.2030882834988006e-08,1.0348011159067028e-07,-8.773514537097071e-08,1.0
1580572334060159223,83,1580572334060159223,world,7.160042997204756e-05,-6.657912598427188e-05,3.3309065660681234e-05,-6.949704129510792e-06,-1.0641256267263088e-05,-9.858131306828e-06,1.0
1580572334296702121,84,1580572334296702121,world,0.0006336920481651907,-1.6649151585900227e-05,0.000860669129725796,-8.733466529520229e-06,-6.043317625881173e-05,9.573465831635986e-06,1.0
1580572334418170500,85,1580572334418170500,world,4.300136070404158e-05,-4.1765551482632114e-05,9.105266826192192e-05,-5.544955570258026e-07,-2.1210234990576282e-06,5.409023742686259e-06,1.0
1580572334533599490,86,1580572334533599490,world,-3.9228657495014526e-05,-0.00017098979929538796,9.906383750927768e-05,-9.749823220772669e-06,1.1581440958252642e-05,7.840360012778547e-06,1.0
1580572334773110494,87,1580572334773110494,world,0.0001763085582761674,0.00023258571565304225,-0.00040676111028385215,4.868893029197352e-06,-6.508493243018165e-06,-2.0024176592414733e-06,1.0
1580572334891113811,88,1580572334891113811,world,0.00015635900077814348,0.0002645058352173699,-9.646182000603925e-05,5.330609837983502e-06,-2.55676841334207e-05,-1.0335018487239722e-05,1.0
1580572335013795902,89,1580572335013795902,world,7.908312709116978e-05,-0.00016083693399892196,0.0008669083764817645,-3.106873009528499e-06,-2.109017441398464e-05,1.829508983064443e-05,1.0
1580572335131660570,90,1580572335131660570,world,9.547613353437845e-05,-1.4259092758707818e-05,0.000813888491139957,4.34183039033087e-06,-1.0951916920021176e-05,2.7048989068134688e-05,1.0
1580572335369266186,91,1580572335369266186,world,-0.00018260569458848747,-0.00018148592369337797,0.0007850123623288076,5.4713827921659686e-06,7.66308119182213e-07,3.698924047057517e-05,1.0
1580572335492642864,92,1580572335492642864,world,-5.081457316405732e-05,9.001224638191753e-05,0.0009754256351086347,-2.3762895580148324e-06,-2.6282385078957304e-05,1.27646826513228e-05,1.0
1580572335725378489,93,1580572335725378489,world,-0.00011068335141354876,2.5911012944786295e-05,0.0004020008321234504,2.8307822503848e-06,-4.026659098599339e-06,2.9761249606963247e-05,1.0
1580572335840442745,94,1580572335840442745,world,-0.00016166355244784034,-1.2751278201010533e-05,-0.00024836081331718946,-1.163589331554249e-06,7.5085681601194665e-06,4.321126652939711e-06,1.0
1580572335956533766,95,1580572335956533766,world,-0.00010275658929268175,-0.00034852209903210466,0.0006561691898388267,-9.853687515715137e-06,-4.292300218367018e-06,6.489713268820196e-05,1.0
1580572336190423991,96,1580572336190423991,world,7.797379850317876e-05,-4.269617634142825e-05,0.0014515114719390308,1.1333264637869433e-07,-1.4688226656289771e-05,1.6928457625908777e-05,1.0
1580572336306366281,97,1580572336306366281,world,4.454550710273696e-05,0.00019123053223951266,-0.0002000286634668001,5.982771199342096e-06,-3.066226781811565e-05,3.2069508506538114e-06,1.0
1580572336539379593,98,1580572336539379593,world,-3.045812545557408e-05,-0.00024354061279241524,0.00029097536051135207,-3.3938531487365253e-06,-7.360836207226384e-07,2.9655309845111333e-05,1.0
1580572336655759510,99,1580572336655759510,world,-9.764259963645205e-05,-0.0003835293299468561,0.0007795311364896478,3.0893284019839484e-06,2.8785423182853265e-06,5.019417221774347e-05,1.0
1580572336889354441,100,1580572336889354441,world,-3.549489008900608e-06,-0.00012421695884280893,0.0005765520314477607,-7.459125299646985e-06,-1.9450328181847e-05,3.585070226108655e-05,1.0
1580572337130255591,101,1580572337130255591,world,-6.572169640143118e-05,4.62713375610054e-05,4.1324012918952095e-05,-1.9236583170822996e-07,-2.682762442418607e-06,2.1753559849457815e-05,1.0
1580572337246008860,102,1580572337246008860,world,5.574321424886426e-06,-0.00011960469209907781,0.00047144179859984523,-2.4936700810940238e-06,1.6740074215704226e-06,2.6881414669333026e-05,1.0
1580572337485842003,103,1580572337485842003,world,-2.5933689389288782e-05,-4.0714242017063816e-05,0.00031015652887654983,8.940177394833881e-06,-1.729226642055437e-05,1.4192097523846314e-06,1.0
1580572337600241628,104,1580572337600241628,world,7.247621920442528e-05,-0.0001112956415716837,0.0006773509772833959,7.331569577218033e-06,-1.9755130779230967e-05,-1.919243368320167e-05,1.0
1580572337837072621,105,1580572337837072621,world,0.0009279288552979104,0.00012779713346244836,-0.0006164882512815772,0.017659796524802006,0.6971884800471926,-0.0001009630762849097,0.7166703655642784
1580572337950980148,106,1580572337950980148,world,0.0002611963464267397,-0.00018784806240240703,-0.00020113571242030837,0.01764504685198869,0.6972027912244144,-0.00010276614547142409,0.7166568089147272
1580572338186327567,107,1580572338186327567,world,0.0004897294081538384,-0.0004172199521640385,-0.0001793189410053131,0.017652543622807555,0.697180160111665,-8.216206824198826e-05,0.7166786616083035
1580572338302265721,108,1580572338302265721,world,0.00036754266736238606,-0.00041054248011102024,-0.00021101252083077782,0.017646066753710558,0.6971878721686311,-9.349854653245264e-05,0.7166713324014207
1580572338540172603,109,1580572338540172603,world,0.0005389125873653811,-0.0003514325435697019,-0.00020678051631106698,0.017660706050398014,0.697197005934334,-8.679549906597987e-05,0.7166619862544087
1580572338771983118,110,1580572338771983118,world,0.0005528105278520545,-0.0003346187121072708,-0.00028881488246434994,0.017660899833662647,0.6971876282538059,-8.637854481111802e-05,0.7166711556678469
1580572338890001720,111,1580572338890001720,world,-0.10687977836541018,0.0021687014132087956,0.016693492321641745,0.017654906726346297,0.6971695638829415,-9.756622868494813e-05,0.7166888703928376
1580572339237819875,112,1580572339237819875,world,-0.10722833364749329,0.0021469862798335626,0.01722148769892584,0.017654630563033,0.6971868124565042,-9.234058006304604e-05,0.7166721225039232
1580572339356009102,113,1580572339356009102,world,-0.10710322512216319,0.002227033516929766,0.017092372917020926,0.017633515960527788,0.697187757590321,-0.0001167935270998563,0.7166717066606093
1580572339585505787,114,1580572339585505787,world,-0.10774813644076309,0.0023083917026314182,0.017194846860164814,0.017659577960695665,0.6971787048844146,-9.11063671195226e-05,0.7166798155617066
1580572339698479880,115,1580572339698479880,world,-0.0,0.0,-0.0,0.0,0.0,0.0,1.0
1580572339809646958,116,1580572339809646958,world,-0.0,0.0,-0.0,0.0,0.0,0.0,1.0
1580572340261056689,117,1580572340261056689,world,1.1920928217588455e-07,-5.960466473848494e-08,1.4901140340646543e-08,-3.2030882834988006e-08,1.0348011159067028e-07,-8.773514537097071e-08,1.0
1580572340381160811,118,1580572340381160811,world,-0.00048335851678050985,0.000347633320817312,-0.0010446300044377021,1.0724088497227058e-05,-2.583429704827722e-06,-1.0690441740734968e-05,1.0
1580572340493259221,119,1580572340493259221,world,0.00028685122243834435,0.00023438666886043858,-5.7680257804482504e-05,1.2983824490220286e-05,-1.9540284483809955e-05,-1.0646195732988417e-05,1.0
1580572340719031629,120,1580572340719031629,world,-0.0004440669418151655,0.00043242674125125246,-0.0013051960382041078,8.624859219708014e-06,9.350494110549334e-06,1.8348830053582788e-05,1.0
1580572340836297762,121,1580572340836297762,world,-0.0005722366318746704,0.0005834585170556258,-0.0015379085843034725,2.088385917886626e-05,3.0048031476326287e-06,8.115854143397883e-06,1.0
1580572340949637619,122,1580572340949637619,world,-0.00030609661204668656,0.00037473231563151107,-0.0018133818727179576,1.628087945095643e-05,-0.0001303315240287263,3.2375410710700395e-05,0.9999999850988387
1580572341182246865,123,1580572341182246865,world,-0.0005823809734069333,0.00046885643090744544,0.000791792633453426,-6.634019151178624e-05,-0.0005640386131320187,-4.792909443310585e-05,0.9999998360872134
1580572341294872733,124,1580572341294872733,world,3.151256212141998e-05,0.0002843739597694926,0.01189345706140792,-0.00015004808995050018,-0.0007792163633897333,-2.953073149952906e-06,0.999999687075566
1580572341521224983,125,1580572341521224983,world,0.0032193562833590247,-0.00016751712752611402,0.047526857032531795,-0.00043177890400521537,-0.0010260494251707838,9.30640756247475e-06,0.9999993816016193
1580572341640605580,126,1580572341640605580,world,0.004307160218045941,-0.0004362540165559237,0.07211197288540651,-0.0006518921491734319,-0.0010784833361899763,-3.309865927921995e-05,0.9999992102381449
1580572341867492196,127,1580572341867492196,world,0.0072838308216588085,-0.001752366006971188,0.13796576164588567,-0.001158948532867261,-0.0012198923893624398,-7.822335624330272e-05,0.9999985843886846
1580572341985338550,128,1580572341985338550,world,0.009109385750355215,-0.0020426721489494584,0.17913645293025593,-0.001469376571305375,-0.0013124981205898765,-0.0001454929081522237,0.9999980479459784
1580572342211607631,129,1580572342211607631,world,0.014585446991695252,-0.0034194942328372065,0.27859413084928897,-0.00219971779708272,-0.0015276958262802048,-0.00011507490791868816,0.9999964013630966
1580572342443293126,130,1580572342443293126,world,0.020690808728226918,-0.004572372699591808,0.39610418562916655,-0.0030252706971207704,-0.0017134436818505257,-0.0001394914734459399,0.999993942659629
1580572342555753673,131,1580572342555753673,world,0.02300226949735623,-0.006282920366630794,0.460538482342285,-0.003500846672102858,-0.001846758934816619,0.00010198510403361779,0.9999921545078556
1580572342785662124,132,1580572342785662124,world,0.028926307888023896,-0.008455734022408101,0.6029274204776071,-0.004340771080945867,-0.002209018657533707,0.0002837590003167803,0.9999881013519978
1580572343014694305,133,1580572343014694305,world,0.034834528958000176,-0.011667322522285105,0.7563926389871837,-0.005058640017332879,-0.0025826341989948834,0.0003109906928893535,0.9999838246587033
1580572343133556544,134,1580572343133556544,world,0.037863224353502214,-0.013200366457835806,0.8382668298049042,-0.005362103583556843,-0.002657170622339053,0.0003194353799516513,0.9999820439395514
1580572343361595408,135,1580572343361595408,world,0.04466457412388575,-0.0188143059874896,1.0092200421980149,-0.005802854290043377,-0.0027036157591953263,0.00022354386180536203,0.9999794808905191
1580572343477849128,136,1580572343477849128,world,0.05021843106335521,-0.020298895139351382,1.1062387780630238,-0.005933266482172875,-0.0027002753784299083,5.865683528869246e-05,0.9999787507183716
1580572343704773448,137,1580572343704773448,world,0.059718634297548756,-0.02649844276961627,1.3064430761121189,-0.00578135109739324,-0.0030559117782150325,-0.0002754942620507371,0.9999785793513617
1580572343825019891,138,1580572343825019891,world,0.06497150933243434,-0.028614070582926032,1.4065547608886315,-0.005523936524421909,-0.003332947078565749,-0.0004936505171980671,0.9999790636493573
1580572344058986110,139,1580572344058986110,world,0.0715912735791521,-0.03588222273589174,1.617349786337742,-0.004746969244224748,-0.003498337232276997,-0.0009465649526320892,0.9999821631509743
1580572344283652587,140,1580572344283652587,world,0.08113440011550563,-0.0456745539561026,1.8425022815993986,-0.0035667908081537295,-0.0035988988245259823,-0.0012650680921255895,0.9999863653445558
1580572344397167402,141,1580572344397167402,world,1.9551066799784147,-0.09604195610508726,-0.026996667701072896,0.01357027695823061,0.6929455003001822,0.0011449588867723573,0.7208614227209611
1580572344629692410,142,1580572344629692410,world,2.1941074475370916,-0.11352814548742218,-0.02852053164837498,0.014502946325630279,0.6932513365768038,0.00010858041404852857,0.7205499832663674
1580572344740941131,143,1580572344740941131,world,2.3044987828980634,-0.12068133986404506,-0.0299707869315462,0.01492104780196102,0.6934726736565434,-0.0004728496966738909,0.7203282981348234
1580572344969214555,144,1580572344969214555,world,2.2171639741258513,-0.2476661179498996,-0.11213548017003672,0.015562596560303333,0.6933123188206813,-0.00032710926749900273,0.7204690672047069
1580572345195684040,145,1580572345195684040,world,2.39173959990467,-0.26224952037884497,-0.11366161529637786,0.01638429046566006,0.6926106843691584,-0.0011396862453963903,0.7211246549982736
1580572345421939804,146,1580572345421939804,world,2.5716071509737253,-0.2792294103415377,-0.11730426810332872,0.017933933185196274,0.6923490642483225,-0.0016020807390231327,0.7213380905912326
1580572345646059866,147,1580572345646059866,world,2.7618269182081896,-0.3081398080896116,-0.11808624256000577,0.022348672910110782,0.6930990545059594,-0.0003283490084279862,0.72049584031079
1580572345763557167,148,1580572345763557167,world,2.8585955583633282,-0.3171653671501175,-0.12030086132328677,0.023423855807619704,0.6930870714803562,-0.0008481360006882468,0.7204727797187684
1580572345993725758,149,1580572345993725758,world,3.0425101086434623,-0.33482087166328645,-0.11939227673850006,0.024335450859538997,0.6932020881304573,-0.004043690854410476,0.720321037092943
1580572346110213026,150,1580572346110213026,world,3.1286192296119326,-0.3438780451103556,-0.1198289063114748,0.02458826226039752,0.6929325322297428,-0.00559382371229715,0.7205613779996801
1580572346226076960,151,1580572346226076960,world,3.206507320848899,-0.3517117593185368,-0.12017428670278196,0.025131909194721795,0.6926201310645795,-0.007334998603918699,0.7208273038905971
1580572346453502470,152,1580572346453502470,world,3.344828048238674,-0.36976332048615745,-0.12527026714111766,0.026347605437907658,0.6919322319865421,-0.010498755723335586,0.7214051112743741
1580572346569785868,153,1580572346569785868,world,3.417649076012328,-0.3783441130128842,-0.1265715908681848,0.027308192652892176,0.6914654048212359,-0.01186396475582811,0.7217958225242984
1580572346802226124,154,1580572346802226124,world,3.5500967698442976,-0.3969014701275828,-0.13029791555032544,0.029303911360708368,0.690873358274008,-0.014125613845103996,0.7222435881335686
1580572346914408480,155,1580572346914408480,world,3.6155963397436484,-0.4077925550554342,-0.13270170959612138,0.030371232098588084,0.6906553789394649,-0.015224523778144356,0.7223856238808266
1580572347145243072,156,1580572347145243072,world,3.746314241118057,-0.4249168733023152,-0.13178149917176896,0.03209623019126364,0.6903055160279874,-0.017562575383713322,0.7225924386384304
1580572347256819625,157,1580572347256819625,world,3.8097184349288256,-0.43404693184840815,-0.13322612897340314,0.03279956765192833,0.6902318501430169,-0.018733362062677505,0.7226017699454619
1580572347372947628,158,1580572347372947628,world,3.8740984363661184,-0.4425392542297597,-0.13503012666401215,0.03357459687435872,0.6900838377174898,-0.01987439678327674,0.722677034646203
1580572347603238034,159,1580572347603238034,world,3.9968986180645665,-0.46227793855796007,-0.1397491664381043,0.035057106473008894,0.6896747117949679,-0.021906567628434886,0.7229384206490778
1580572347718697885,160,1580572347718697885,world,4.056384909980881,-0.4715872182102252,-0.14115690768158728,0.035994392060237856,0.6895426423552388,-0.022713029478690243,0.7229935142574414
1580572347949213022,161,1580572347949213022,world,4.180154333588412,-0.49418159082783686,-0.14052120557659098,0.03791192901696213,0.6888782120794543,-0.024416130340694148,0.7234731541822057
1580572348065975326,162,1580572348065975326,world,4.239568552991095,-0.5043313994568754,-0.13892793926667224,0.038888332102557786,0.6886324817281694,-0.02532427826940569,0.7236239887065085
1580572348297048992,163,1580572348297048992,world,4.373491549995343,-0.5263130492155874,-0.14125402910548956,0.040752527089255045,0.6881594454915259,-0.027404046410151133,0.7238956854263646
1580572348533555897,164,1580572348533555897,world,4.508422065532049,-0.5514754321651378,-0.14270016447969347,0.042907232871436524,0.6880290223585002,-0.02931442836654653,0.7238202283483062
1580572348665136505,165,1580572348665136505,world,4.5777379674913945,-0.5664676138361189,-0.14131401927820164,0.04431873110367037,0.6878271818302466,-0.03032960619379682,0.7238852283332858
1580572348780259679,166,1580572348780259679,world,4.638862872307772,-0.5804564385047273,-0.14319291400436995,0.0454587142903425,0.6875751214753308,-0.031194409524499138,0.7240171865970868
1580572349017046789,167,1580572349017046789,world,4.8488350325553355,-0.6656023862246272,0.008225982007036947,0.04665978240590991,0.6885126704304115,-0.03293240848448658,0.7229721203806456
1580572349251319812,168,1580572349251319812,world,4.955523670307098,-0.6856008490799244,0.00831295569194701,0.048312069884514926,0.6882319610801486,-0.03451128702536432,0.7230571974847516
1580572349368718759,169,1580572349368718759,world,5.009373257620041,-0.697766509725029,0.006065955036682169,0.04910350120384843,0.688086678898192,-0.03512306380470736,0.7231127147900358
1580572349607567706,170,1580572349607567706,world,5.109348607879438,-0.7121590516129062,0.003889374622596087,0.051116003730717036,0.6876101533947377,-0.036181156786126864,0.7233742935548995
1580572349721768894,171,1580572349721768894,world,5.156081319327473,-0.7208720851214945,0.001918833881523696,0.05213299015616844,0.6873540997793778,-0.036556473785625015,0.7235261784492228
1580572349950450712,172,1580572349950450712,world,5.237708479712161,-0.7431640864632536,-0.002151048893985319,0.05353143378414932,0.6868941388692469,-0.03791308283408012,0.7237910871092945
1580572350065687104,173,1580572350065687104,world,5.270383209321903,-0.7562487767205486,-0.003464313708771094,0.0541164386143183,0.6867060286090796,-0.03852367109573724,0.7238937916333076
1580572350293673369,174,1580572350293673369,world,5.351245495133121,-0.7744060986544696,-0.006587893977952675,0.055367619519406386,0.6862558572279007,-0.03963381121088113,0.7241661073220145
1580572350413453603,175,1580572350413453603,world,5.393503957143597,-0.7833658344858365,-0.007106930800802047,0.05592515240573693,0.6862041134423932,-0.040321823004201035,0.72413424314674
1580572350535070345,176,1580572350535070345,world,5.431133975683277,-0.7921243367732858,-0.008105024279391415,0.056507004903527114,0.6861717175583398,-0.04096601079546856,0.7240836506151149
1580572350764091834,177,1580572350764091834,world,5.478718460846899,-0.8020020797423095,-0.006842054377221629,0.057515450239519456,0.6871633990042968,-0.041575942273685405,0.7230283655469423
1580572350998785295,178,1580572350998785295,world,5.483806843957254,-0.8047479745885242,-0.007411408615123349,0.057330225498022545,0.6870300051098123,-0.04185320632874529,0.7231537833127435
1580572351113797591,179,1580572351113797591,world,5.483409042822423,-0.804304944632799,-0.007095207979838314,0.05712170264658907,0.6861413258233513,-0.04217049021929873,0.7239950614413015
1580572351345122814,180,1580572351345122814,world,5.499489604698123,-0.8078956609308143,-0.005877353669906604,0.057241612120537876,0.6865380438284016,-0.04201199935040895,0.7236186758454628
1580572351462330124,181,1580572351462330124,world,5.496546074186096,-0.8087975772656917,-0.006977098691125505,0.05721974839934849,0.6862365622646832,-0.04203937435848934,0.7239046602913033
1580572351693525983,182,1580572351693525983,world,5.500527590728634,-0.8073299908634206,-0.005925054884359682,0.05725315079753238,0.6862551932576328,-0.04212689206010349,0.7238793615909027
1580572351807838575,183,1580572351807838575,world,5.5020607664266095,-0.807265528829809,-0.005644840229606984,0.05731369401750563,0.6860445296693085,-0.04214229027126923,0.7240733197144287
1580572352042292824,184,1580572352042292824,world,5.508246577952985,-0.8095059933033615,-0.005473878390928277,0.05742414712225444,0.6856731072581361,-0.04255353951132405,0.7243923057483499
1580572352157963787,185,1580572352157963787,world,5.545509882503723,-0.8137217974863462,-0.003949577533061799,0.05752120091790806,0.6855556532795943,-0.043063702657251283,0.7244655949747222
1580572352391706772,186,1580572352391706772,world,5.590544359662143,-0.8266864991466218,-0.004666747209231659,0.05843459875693381,0.685159782157135,-0.043424018626014194,0.7247453340957208
1580572352622528192,187,1580572352622528192,world,5.657721477086227,-0.8461254994772949,-0.007872012504661186,0.0598970783035651,0.6842911882656907,-0.04415645913171144,0.7254020488704295
1580572352736346557,188,1580572352736346557,world,5.702203650357756,-0.859134481525063,-0.010534362463284097,0.061187816624480945,0.6837034346550954,-0.044250680881137996,0.725842703854776
1580572352960650055,189,1580572352960650055,world,5.804026746182231,-0.8899308476392602,-0.00918148029510224,0.06426896330322593,0.6829511266952593,-0.04475027903484726,0.7262538849239213
1580572353076472558,190,1580572353076472558,world,5.852575916084071,-0.9029672842187604,-0.008664857915331226,0.06535089458524898,0.6832649101854454,-0.04523149332729828,0.725832295342224
1580572353301060351,191,1580572353301060351,world,5.915146146197493,-0.9164526712270842,-0.00817663571261562,0.06615617061976077,0.6840222152867468,-0.04684331552895416,0.7249433051336577
1580572353532660425,192,1580572353532660425,world,5.976174144864817,-0.9333654861891398,-0.010426933105152969,0.06678186271413517,0.6832354599849444,-0.0478279635593574,0.725563305672553
1580572353647402306,193,1580572353647402306,world,6.000534249044694,-0.9396811220691563,-0.010387130786353893,0.06698245348083028,0.6830599691020887,-0.04828209749999752,0.7256799074833201
1580572353880430870,194,1580572353880430870,world,6.053301998110172,-0.9543016138377984,-0.012352419846266116,0.06742629418205387,0.6827912634914167,-0.049351829450169166,0.7258197515518454
1580572353992715832,195,1580572353992715832,world,6.071446930389552,-0.9588334698598335,-0.010561495181757863,0.06770999384863437,0.6826971924155542,-0.049900283345828376,0.7258442435628949
1580572354224103175,196,1580572354224103175,world,6.134996025882412,-0.973223893300839,-0.010509404245190979,0.06829665236874215,0.6827031192147079,-0.05153205626865741,0.7256697019793326
1580572354336055367,197,1580572354336055367,world,6.165755698946207,-0.9802551322131139,-0.010915852998822473,0.06873280411165539,0.6826505182412931,-0.05250640243922967,0.7256081373635876
1580572354448656418,198,1580572354448656418,world,6.201584903584958,-0.9909492515697527,-0.012848679147381858,0.06906333293412999,0.6826763523570379,-0.05376323302525006,0.725460365077704
1580572354673980848,199,1580572354673980848,world,6.257988386299829,-1.0086376012521803,-0.02026897497590241,0.07008191745716369,0.6826388203883955,-0.05661982439578501,0.7251806346539079
1580572354787197698,200,1580572354787197698,world,6.286355011040943,-1.0185497464067432,-0.019331260117791516,0.07095473080296398,0.6826230500095255,-0.058126070432701564,0.7249914945728326
1580572355019707858,201,1580572355019707858,world,6.3602339429924335,-1.0458008030719248,-0.016166163280686874,0.0734679411862181,0.6825929818119837,-0.06096767110631717,0.724535874086078
1580572355133898122,202,1580572355133898122,world,6.403186255543222,-1.0602049010034547,-0.01409954842102934,0.07512424838304649,0.6824624055607051,-0.06266784648751948,0.7243440147302977
1580572355358839875,203,1580572355358839875,world,6.501392932014319,-1.097939916788802,-0.015735423174485064,0.07860205551536303,0.6819992337540732,-0.06668723487359497,0.7240522561564942
1580572355471414391,204,1580572355471414391,world,6.548665522591573,-1.1191913528871043,-0.017428640816572027,0.08061741914770101,0.6817402529376844,-0.0688869385898899,0.7238685646021386
1580572355701776785,205,1580572355701776785,world,6.654438580727454,-1.1689378130943653,-0.020010513908763627,0.08530840789601295,0.6810595871840587,-0.07349443535096055,0.723518393424434
1580572355812145354,206,1580572355812145354,world,6.722426266894974,-1.2008993645579644,-0.01993895361456488,0.08816864599940642,0.6808593609692379,-0.07579130411114511,0.7231269849751627
1580572356036321233,207,1580572356036321233,world,6.8515493313758284,-1.2642113015596155,-0.02216823785277633,0.09389575132159778,0.6802877872059513,-0.08134591442526258,0.7223399114290169
1580572356148685152,208,1580572356148685152,world,6.9175940832328,-1.2989822543624365,-0.02289144943057586,0.09672655098954884,0.6798584648215771,-0.08437451193965029,0.7220231866045778
1580572356376349958,209,1580572356376349958,world,7.066155455315226,-1.379659604984333,-0.02577271918759827,0.1027959093977561,0.6790471450488448,-0.0904062290882247,0.7212175223775076
1580572356487816012,210,1580572356487816012,world,7.15119561244471,-1.4251055373397268,-0.028259839512529084,0.1061291202128105,0.6785256716328852,-0.09377113097851769,0.7207957676009099
1580572356711795722,211,1580572356711795722,world,7.342774982924631,-1.5375249263944122,-0.027415669128803444,0.11366491423100787,0.6769151118991505,-0.09977264896510368,0.7203552729884085
1580572356827227851,212,1580572356827227851,world,7.4428820031314125,-1.5997210747431154,-0.025507658656845678,0.11795230155742896,0.6759462974725674,-0.1032428227660689,0.7200866481677631
1580572357052685473,213,1580572357052685473,world,7.628931640405483,-1.7138821009323255,-0.031915099984981765,0.12705070104149405,0.6739270883263115,-0.11296291023921792,0.7189713427518901
1580572357164027583,214,1580572357164027583,world,7.796036771446847,-1.8014848850766096,-0.03710349469702834,0.13215000107549482,0.6722892237187932,-0.11872445120763093,0.7186571766166886
1580572357280206827,215,1580572357280206827,world,7.944355909571279,-1.88728375860153,-0.041478897053934816,0.13836243550511004,0.6703555313391035,-0.12468296547671824,0.7182850370375732
1580572357503533836,216,1580572357503533836,world,8.2368423093126,-2.081540037587107,-0.0408391203812144,0.15275813407611777,0.6660246963054692,-0.13847010423148404,0.7168697143466253
1580572357615780244,217,1580572357615780244,world,8.413169506742257,-2.1944476803231403,-0.04076634031931192,0.1602347933553302,0.6635245044537067,-0.1475195847749717,0.7157499791417467
1580572357845605186,218,1580572357845605186,world,8.798872194168393,-2.4684602747841797,-0.03445742074080016,0.1767767012125395,0.6611024311392313,-0.16476603496695663,0.7103139007796218
1580572357955984028,219,1580572357955984028,world,8.983504973979677,-2.6146277495363064,-0.03386920771212942,0.1846034789139507,0.6598652376871508,-0.17339410366287075,0.7074135647669525
1580572358066924967,220,1580572358066924967,world,9.169965001550317,-2.766160229755153,-0.03649772063316448,0.1921298538570362,0.6570448124436495,-0.18276951839362465,0.7056724495050164
1580572358288513153,221,1580572358288513153,world,9.545711237394542,-3.1028971307764053,-0.03688424576522209,0.20874080097744055,0.6507777770036651,-0.2000873379339324,0.7020545864917436
1580572358400078801,222,1580572358400078801,world,9.702452431983385,-3.2563864537709772,-0.029891329774869746,0.21746941513867502,0.6484586600081041,-0.20886781937951723,0.6989868674634072
1580572358621170455,223,1580572358621170455,world,10.0759823496211,-3.6406294204816767,-0.03402172560548067,0.2337184519075964,0.6437838335069475,-0.22541909341166616,0.6928956106094505
1580572358731057981,224,1580572358731057981,world,10.251008046719903,-3.832078061369103,-0.036451944271618686,0.24188583972717376,0.6402055214131953,-0.23398589413313103,0.6905641762026667
1580572358839259669,225,1580572358839259669,world,10.418124610472226,-4.023000182352757,-0.03856511743968838,0.249890415318169,0.6367016560893127,-0.2425376465255182,0.6879980927221897
1580572359066110542,226,1580572359066110542,world,10.776870173763324,-4.442498963361267,-0.0460080867942807,0.26468410771925355,0.630254015351446,-0.26094470531563174,0.6816378268209042
1580572359176665631,227,1580572359176665631,world,10.945154262429018,-4.656034863438668,-0.04533622450998109,0.27134624574693655,0.627083337583619,-0.2709325738549865,0.6780362954552179
1580572359291376667,228,1580572359291376667,world,11.126948977121813,-4.899685705571059,-0.046998417058162545,0.2783034678228741,0.6242387095125824,-0.281058168090476,0.6737058445646246
1580572359513627484,229,1580572359513627484,world,11.484047436175956,-5.433175240577489,-0.0584997111957577,0.2956489595767822,0.6166540210592956,-0.29914587653051383,0.6654632268794223
1580572359626364887,230,1580572359626364887,world,11.64758898338236,-5.724592998972602,-0.06157668020721019,0.305956337597931,0.6115167537976852,-0.3072537484918714,0.6618407613239292
1580572359742175035,231,1580572359742175035,world,11.7904708298029,-6.006651177911969,-0.056964764334992424,0.3163557290160237,0.6066536726415684,-0.31521162992849827,0.657671694058745
1580572359961965105,232,1580572359961965105,world,12.098065505932396,-6.59421884057808,-0.06377942650665602,0.3336785054283603,0.596747496687419,-0.33896468587680645,0.6462615398358015
1580572360074160148,233,1580572360074160148,world,12.237189668697354,-6.904318855675328,-0.0687176045755109,0.343195601043632,0.590827694728331,-0.3501159913527033,0.6407482447352723
1580572360185609167,234,1580572360185609167,world,12.363563013710603,-7.226109232446596,-0.07281442546607764,0.3536582076705793,0.5845866504528656,-0.3603717904209927,0.6350721822097617
1580572360299081233,235,1580572360299081233,world,12.470820538298767,-7.555159328659066,-0.07533498282586493,0.3643729794234455,0.5783574681419835,-0.37002727207037994,0.6291382640044457
1580572360526026435,236,1580572360526026435,world,12.696482274784728,-8.267274200468627,-0.08295375491331924,0.3836760180596477,0.5662067370086732,-0.39096543355884256,0.6159129442403468
1580572360637549573,237,1580572360637549573,world,12.828649811057318,-8.62436273672241,-0.09494597124586335,0.3929364288291167,0.560030648474535,-0.4007534761858924,0.6093960416046486
1580572360749662628,238,1580572360749662628,world,12.925764799259099,-8.994130698832734,-0.09455338830480287,0.40124287035055,0.5542808385603388,-0.40929406902782717,0.6035358092256768
1580572360863659971,239,1580572360863659971,world,13.008762924566696,-9.39208190746674,-0.09322169553635717,0.40949963710399956,0.5486128497844572,-0.4168868685454563,0.5979460842480913
1580572360977631887,240,1580572360977631887,world,13.098123457363329,-9.795618103438386,-0.09469998335515584,0.41700055090349475,0.5428162646189963,-0.42383570257765735,0.5931478885660002
1580572361208794038,241,1580572361208794038,world,13.280624818399616,-10.645577831610346,-0.10483255737835862,0.42681958931494324,0.5346381690133718,-0.437565749746646,0.5835438345687602
1580572361321452997,242,1580572361321452997,world,13.361881878950399,-11.082276634649595,-0.1030358823866635,0.4302334203543552,0.5313113765494699,-0.44276712185464884,0.5801420337138279
1580572361434191657,243,1580572361434191657,world,13.435225360097533,-11.53719704391046,-0.1008457657637507,0.43366940476958393,0.5284194852242776,-0.4469251287034243,0.5770284589322411
1580572361556098698,244,1580572361556098698,world,13.521600477654019,-11.999388309830316,-0.10507021322503363,0.437334954069655,0.5245731897707858,-0.450975526636986,0.5746150174048671
1580572361668046013,245,1580572361668046013,world,13.592725275973606,-12.456017964055519,-0.09935164570987354,0.4404261547053936,0.5216545183325251,-0.4553692858849193,0.5714370144705664
1580572361893860755,246,1580572361893860755,world,13.731463092305944,-13.416522899227466,-0.08058075547705812,0.44512883316334356,0.5169734882755261,-0.46484053379615997,0.5643775783788307
1580572362012350927,247,1580572362012350927,world,13.788943352106998,-13.939149107060565,-0.07387121371328931,0.4475396579835107,0.514732972017958,-0.4687766747390671,0.5612545265151156
1580572362124549419,248,1580572362124549419,world,13.840914554236434,-14.463645366519692,-0.062666159329126,0.4505992304443259,0.5118011325794528,-0.47142169235251513,0.5592688502390643
1580572362236288778,249,1580572362236288778,world,13.894067086743462,-14.98059423582687,-0.05195227361674881,0.4532669746606509,0.50946805509225,-0.47361570347818227,0.5573865744327263
1580572362464341931,250,1580572362464341931,world,14.003266913684826,-16.067733517610613,-0.040779502262068945,0.4551299390377328,0.507952611114926,-0.47678999037683006,0.5545379007112096
1580572362585295851,251,1580572362585295851,world,14.059371769892635,-16.643335692095576,-0.034515517638681104,0.4549843403116245,0.507663824558314,-0.47828029241386116,0.5536378681068035
1580572362697067795,252,1580572362697067795,world,14.123308490213134,-17.178549970069,-0.027626911306214197,0.45504903943404146,0.5076134644170491,-0.4791091898907972,0.5529135423767008
1580572362809704702,253,1580572362809704702,world,14.177123859026779,-17.72839565392053,-0.02328779049466334,0.45502933139026347,0.5077860569565538,-0.47968836536908316,0.5522688802778862
1580572362921947185,254,1580572362921947185,world,14.229763760130538,-18.288857900215092,-0.01847446035219491,0.45497959056026355,0.5079188150063656,-0.48051350567990897,0.5514696837399115
1580572363150409208,255,1580572363150409208,world,14.341112288775236,-19.450528572188638,-0.009004752508261049,0.4553938735326861,0.5080778236077558,-0.4827441841898806,0.5490277290515775
1580572363269083581,256,1580572363269083581,world,14.387994112032999,-20.05475637066605,-0.0030844411350585688,0.4561631312310019,0.5076978052414948,-0.4833130278050904,0.5482394091648198
1580572363380042041,257,1580572363380042041,world,14.435932445044372,-20.65394853487124,0.007106187655551821,0.45633857457616467,0.5069261474733058,-0.48391266156550694,0.5482790226210289
1580572363493129919,258,1580572363493129919,world,14.501108619827846,-21.218062829794796,0.009212694328383009,0.45677402281930934,0.5060990005587536,-0.48429664344065365,0.5483413791380232
1580572363724253763,259,1580572363724253763,world,14.60844465573345,-22.451423123397383,0.027515778831030957,0.45687371096803725,0.506481759502264,-0.48528621686323536,0.5470283974358222
1580572363837158517,260,1580572363837158517,world,14.655816039166226,-23.08269148450011,0.03719261840848276,0.45725799324467314,0.5061740522889312,-0.4856797126087601,0.546642662830706
1580572363950720737,261,1580572363950720737,world,14.702056408571593,-23.718906152855254,0.04728730809938497,0.4579024013084921,0.5049703962176352,-0.4862391352393123,0.5467192564310812
1580572364062508123,262,1580572364062508123,world,14.74675958426812,-24.35889800224364,0.05726309313791944,0.458408255300593,0.5039461192898841,-0.4866214900341953,0.5469002309155949
1580572364180575799,263,1580572364180575799,world,14.79210847236584,-25.04080969292817,0.06766094953550805,0.4582117271859088,0.5031030303593234,-0.4872888995718146,0.5472466023724352
1580572364415809964,264,1580572364415809964,world,14.88619049577531,-26.39605563261854,0.08846264301084261,0.45773846223461334,0.5034377838434898,-0.48711235751285636,0.5474917884541821
1580572364529947066,265,1580572364529947066,world,14.939416044831688,-27.057875595176412,0.09919177508899679,0.45771855622975405,0.5034885516201424,-0.48705935027413955,0.5475091527147672
1580572364646980117,266,1580572364646980117,world,14.993779575243977,-27.74275633060467,0.11126211201880665,0.45770039411861607,0.503741740558163,-0.4867287589191241,0.547585638721025
1580572364758880373,267,1580572364758880373,world,15.050265403642754,-28.404957838388285,0.12402861872507742,0.4574908310740949,0.5041634788985762,-0.48625389455097523,0.5477942914488103
1580572364872289863,268,1580572364872289863,world,15.10458464659942,-29.089307393753025,0.13876460767900767,0.4571230348826328,0.5046230619054272,-0.4857771437258377,0.5481007870988461
1580572365099618312,269,1580572365099618312,world,15.223327780100107,-30.462582339022397,0.1525544472386713,0.45693357831959636,0.5060331079579419,-0.48425986076948074,0.5483018245407852
1580572365211404450,270,1580572365211404450,world,15.288658592157987,-31.140239412190148,0.16040417984734745,0.45677947779801026,0.5064986416991191,-0.48364358006052716,0.5485441348750413
1580572365327282627,271,1580572365327282627,world,15.355494717094203,-31.8484889069684,0.17107254178887388,0.4566407137517248,0.5071578621207933,-0.483346649377056,0.5483122739714223
1580572365447512706,272,1580572365447512706,world,15.414289909532314,-32.59580365995649,0.18935631283262921,0.4563922060685425,0.5073357118724466,-0.48345772503643747,0.548256695388601
1580572365673849037,273,1580572365673849037,world,15.528988211763902,-34.01106869963161,0.21796012527079256,0.4570928893718643,0.5068398890804482,-0.4836353692857357,0.5479746525568661
1580572365787061582,274,1580572365787061582,world,15.587681698825946,-34.7649913215972,0.23060750644043537,0.4572749456196905,0.506655414595239,-0.48391298878931405,0.5477479642945995
1580572365905738938,275,1580572365905738938,world,15.653702132500143,-35.46979939784104,0.2425789219186072,0.4578006371510741,0.506513736866707,-0.483856992932675,0.5474895294268199
1580572366126822765,276,1580572366126822765,world,15.868040610941534,-35.975932096570226,0.7445400375220288,0.45201505365009026,0.5064482813500718,-0.4900826774365481,0.5468196568414769
1580572366239561476,277,1580572366239561476,world,15.948667837619496,-36.462871163540015,0.7391299248006931,0.45210499729451736,0.506571261795473,-0.4904168166119953,0.5463314897784646
1580572366350995591,278,1580572366350995591,world,16.009945641262817,-37.18753039206503,0.7572428185726778,0.4522705396611607,0.506982652338159,-0.490276570807926,0.5459385620002046
1580572366462057780,279,1580572366462057780,world,16.068739986892083,-37.90644080251194,0.7761657592135265,0.4523300343009111,0.5075388259211359,-0.4902344640317906,0.5454103611576033
1580572366576554130,280,1580572366576554130,world,16.132639476939943,-38.632243339632396,0.7961610770188656,0.45239769896649457,0.5075473884571197,-0.49031798255848813,0.5452711428505107
1580572366806348381,281,1580572366806348381,world,16.254725943812844,-40.07257565164641,0.8357303377413814,0.45232105881198775,0.5075833522955212,-0.4912677979580463,0.5444456364279088
1580572366919156113,282,1580572366919156113,world,16.30950816448673,-40.802230147038145,0.8544092441901512,0.45227511808415327,0.5076770836307486,-0.49160490266393136,0.5440916210490256
1580572367032984539,283,1580572367032984539,world,16.361267963697173,-41.52217674065937,0.8747326424102937,0.45250127361758713,0.5075446061811918,-0.49153789959183863,0.5440880743914603
1580572367144999423,284,1580572367144999423,world,15.455668731121563,-39.45712561227082,-0.35699204140743745,0.46156095783244766,0.5002704995669429,-0.4866540318369221,0.5475939384633847
1580572367373532784,285,1580572367373532784,world,15.556595077566186,-40.897420260737015,-0.32850996788057785,0.4612485574076085,0.5007239043279439,-0.48742921734162803,0.5467521120692563
1580572367485713137,286,1580572367485713137,world,15.596896621410352,-41.63790205111834,-0.31497985904240977,0.4618374498424419,0.5009194301744634,-0.4871046701340655,0.5463654460294219
1580572367712731212,287,1580572367712731212,world,15.690945670237056,-43.057947171333396,-0.3013079641408183,0.46196732943151886,0.5004104964590786,-0.48770067478631446,0.5461903237015465
1580572367826347711,288,1580572367826347711,world,15.736687267286442,-43.762646227280385,-0.29075208110526773,0.46164014581694973,0.5004692841562834,-0.488266600290731,0.5459073088169066
1580572367940962638,289,1580572367940962638,world,15.780228106371396,-44.46821650011059,-0.27486201136208877,0.46161387447799485,0.5004141835119091,-0.48850847592859953,0.545763739548791
1580572368051689048,290,1580572368051689048,world,15.819176179308187,-45.064077317999796,-0.26151789154991434,0.4617518320720785,0.5004549600976976,-0.4884320166372811,0.545677809240697
1580572368281836785,291,1580572368281836785,world,15.922005471935634,-46.486191910972885,-0.22358945268914,0.46229252735310683,0.5001891463763519,-0.4882078010987935,0.5456645239227897
1580572368396263142,292,1580572368396263142,world,15.967216068358567,-47.19900800341738,-0.20876631538544643,0.46216680234761914,0.5006496794979652,-0.4880726330247008,0.5454696991605431
1580572368508867120,293,1580572368508867120,world,16.011921701761423,-47.950172673806705,-0.19654732698720068,0.4618858982613615,0.5010712119436787,-0.48810253426073663,0.5452933327221972
1580572368622891875,294,1580572368622891875,world,16.057899609376193,-48.662539544101875,-0.18360737320250564,0.46210728156031444,0.5012112830277252,-0.48767072425120966,0.5453638451567928
1580572368851703174,295,1580572368851703174,world,16.147129916755645,-50.10553731135968,-0.15705577751469946,0.4627270471581526,0.5016591840240971,-0.4867894789408345,0.5452134367582849
1580572368964470167,296,1580572368964470167,world,16.192873678982124,-50.83745502700753,-0.14586461132428497,0.4627296439800093,0.5020644405734953,-0.48663322464834674,0.5449778893780249
1580572369192541868,297,1580572369192541868,world,16.279438585363522,-52.19737375369443,-0.11606449415793918,0.4627361452591716,0.5022791592406187,-0.4859151474137058,0.545414978388521
1580572369309010818,298,1580572369309010818,world,16.333967928856197,-52.933637913782206,-0.09674991863349192,0.46303681124410306,0.5023183427421679,-0.4853701143363043,0.5456087575594523
1580572369534350199,299,1580572369534350199,world,16.436505140533413,-54.32426006903612,-0.06581486973129813,0.46311127058744644,0.503018837153821,-0.48465815140902224,0.545533373787323
1580572369650152932,300,1580572369650152932,world,16.48534271395775,-55.06640289155909,-0.05721430114350312,0.4634242660254243,0.5033877344061898,-0.48435511528544417,0.545196272697568
1580572369762511410,301,1580572369762511410,world,16.53314487954046,-55.780340842591976,-0.04803112357825512,0.4638862087860949,0.5035967298208965,-0.4840552712917192,0.5448766436655974
1580572369876053287,302,1580572369876053287,world,16.578024875964402,-56.48405690759445,-0.03823163552878839,0.46454163035863294,0.5035392564294997,-0.48361003953251247,0.5447668860095523
1580572369993833171,303,1580572369993833171,world,16.6273276268778,-57.20219956021887,-0.029486049700764738,0.4648749281828862,0.5031871386060446,-0.4835191010103629,0.5448883894062635
1580572370221016262,304,1580572370221016262,world,16.721446368815663,-58.57289091471522,-0.015476718308292448,0.46461569815046666,0.5029337575396944,-0.48369680355663724,0.5451857362111012
1580572370335786975,305,1580572370335786975,world,16.76895504132166,-59.25087251565674,-0.005985251238200817,0.4646405804099547,0.5035935056772423,-0.48310122696049873,0.5450837089839765
1580572370452315646,306,1580572370452315646,world,16.823570085390713,-59.93921307064416,0.00665321557168852,0.46471389217122167,0.5039392392441707,-0.48290540741996457,0.5448750848404709
1580572370563926834,307,1580572370563926834,world,16.884131040598703,-60.60640731036141,0.017369096316755872,0.4649551389015857,0.5038514341958552,-0.4833571657774825,0.5443495065389193
1580572370674476321,308,1580572370674476321,world,16.933700578596955,-61.27117313289534,0.024470243614956644,0.46495473341471555,0.5033583942905198,-0.4843531907562935,0.5439202732644375
1580572370902299406,309,1580572370902299406,world,17.021916866096547,-62.62564579682751,0.041103278731668524,0.46619157731395916,0.5021538522305717,-0.4852620286417901,0.5431645541170015
1580572371015103678,310,1580572371015103678,world,17.059453166761728,-63.32004461908838,0.04553006098109336,0.46674350086384203,0.5016656219511817,-0.48568289887752053,0.542765297953936
1580572371142026840,311,1580572371142026840,world,17.10435033857516,-64.01227930744153,0.06030529127491491,0.46805069272057376,0.5015528185567654,-0.4855773503779596,0.541837446788055
1580572371255370292,312,1580572371255370292,world,17.148046087581235,-64.67368189232607,0.06884424657107502,0.4694246422448834,0.5014214462905466,-0.4848421531358239,0.5414290931143226
1580572371366232635,313,1580572371366232635,world,17.188310571841953,-65.31492888113772,0.07795729990721156,0.470024264974475,0.5016287807579572,-0.48406993661565223,0.5414077219316915
1580572371592159796,314,1580572371592159796,world,17.279819917408403,-66.60342671674886,0.08530007435308562,0.4694067055651186,0.5031956373391819,-0.4836252259574512,0.5408866949040299
1580572371703956372,315,1580572371703956372,world,17.32220204833486,-67.28235915516089,0.08701297186422607,0.4687754805319259,0.5036097907011269,-0.4836180392510446,0.5410548309552919
1580572371822435466,316,1580572371822435466,world,17.361214378458016,-67.88495747631957,0.0954253660662232,0.4686971889656493,0.5036693429180904,-0.48315931661414707,0.5414770616734559
1580572371937354078,317,1580572371937354078,world,17.404877800130976,-68.52799888210667,0.1025462140479334,0.46869513485535086,0.5039851700556494,-0.4829834528187473,0.5413418829280738
1580572372165072194,318,1580572372165072194,world,17.492491558244097,-69.86091051324807,0.10886592639636206,0.4681399861961161,0.5045521573432699,-0.48343229309134195,0.540893403167118
1580572372277910724,319,1580572372277910724,world,17.532562543393368,-70.51547871145671,0.11141458273193905,0.4683535545573692,0.504808468442672,-0.48306771410832494,0.5407946855032798
1580572372396719918,320,1580572372396719918,world,17.572058968551815,-71.1537661852384,0.12018001451012594,0.46835946820384583,0.5049544765159263,-0.4829155934533113,0.5407894639584788
1580572372507652056,321,1580572372507652056,world,17.613320304889953,-71.76875933048167,0.12202512696983092,0.46836936155883235,0.5051097759775925,-0.48283645952204385,0.5407065048960948
1580572372731756725,322,1580572372731756725,world,17.696937560708136,-73.03385573590535,0.12541354957723172,0.4678815130464029,0.5053268494258091,-0.48334317244705755,0.5404729359164976
1580572372848282886,323,1580572372848282886,world,17.73693076324102,-73.68276108521042,0.12602553173246633,0.46797582887921463,0.5055194133134638,-0.48346717492466884,0.5401004390777981
1580572372964467404,324,1580572372964467404,world,17.77786182064709,-74.36304511698631,0.1256774064366084,0.46836728011581885,0.5056608233919486,-0.4837011252363121,0.5394189319643571
1580572373076913573,325,1580572373076913573,world,17.81568788631705,-75.0249886684635,0.12406523788556001,0.46843085434905785,0.505606516296288,-0.48416691251657556,0.5389965680478451
1580572373303271005,326,1580572373303271005,world,17.89849065480132,-76.28664073378323,0.1208846219031301,0.46853853069481183,0.5058945255275271,-0.48302950019490026,0.5396527914561228
1580572373415313829,327,1580572373415313829,world,17.941921200647187,-76.89792361375055,0.1191128651147011,0.467741587801098,0.5066255990904368,-0.48288880196097167,0.5397839072771665
1580572373529724968,328,1580572373529724968,world,17.983961349738692,-77.51811654739667,0.11807348889166747,0.4671437707553389,0.5075222556034206,-0.4828605770717573,0.5394847156243947
1580572373640813006,329,1580572373640813006,world,18.02271452618558,-78.11729460450411,0.11931862760293654,0.4671456735260804,0.5081870652458695,-0.4824022947240492,0.5392670450660242
1580572373873251720,330,1580572373873251720,world,18.09898411780702,-79.36511932075351,0.11878539988015291,0.46708037501933763,0.507791947093082,-0.48197322946642773,0.5400790705011083
1580572373983834629,331,1580572373983834629,world,18.14071369801482,-80.01894397046236,0.11491582705133396,0.4677650494087127,0.5076492523766971,-0.4813993043878822,0.5401324006968259
1580572374095084461,332,1580572374095084461,world,18.17957979439862,-80.63153039568587,0.11226830805765076,0.46721868241743814,0.5079721974042887,-0.48212243902114627,0.5396565053242169
1580572374326689769,333,1580572374326689769,world,18.25891664010959,-81.8914401078591,0.11002674579174254,0.46694780613729325,0.5077087172046693,-0.4828591799008118,0.5394803514729677
1580572374438498960,334,1580572374438498960,world,18.30205001070604,-82.50358978396466,0.1073492178721267,0.4671012051266504,0.5077454917543993,-0.4829477235928955,0.5392335261064404
1580572374552718182,335,1580572374552718182,world,18.340610715729355,-83.11112306403751,0.10749386897248314,0.46735924087490827,0.508000169926677,-0.48257531043176854,0.5391035478968728
