%time,field.header.seq,field.header.stamp,field.header.frame_id,field.pose.position.x,field.pose.position.y,field.pose.position.z,field.pose.orientation.x,field.pose.orientation.y,field.pose.orientation.z,field.pose.orientation.w
1580572324244330010,38,1580572324244330010,world,24.47560325560027,-0.49772587819392,-0.5146173482123801,0.015531306456179683,0.6998963325985385,-0.024967854954737394,0.7136390206594543
1580572324363373183,39,1580572324363373183,world,25.172665756065065,-0.5648219795524181,-0.5349611612772018,0.018848820762562443,0.6997796630098017,-0.0290309514126713,0.7135197202180078
1580572324474984401,40,1580572324474984401,world,25.82331431369702,-0.646590388127497,-0.5580356892008806,0.02256899046778992,0.699398780858679,-0.03241337028318676,0.7136395426725208
1580572324587923107,41,1580572324587923107,world,26.492588987840435,-0.7471850928958412,-0.5885083289356361,0.026122434695475167,0.6998190389726351,-0.035195612838483326,0.712974250800661
1580572324701478377,42,1580572324701478377,world,27.15407350902004,-0.8417944845948053,-0.612540892819041,0.029780969301187264,0.7001945860554392,-0.037635231509722644,0.7123371954681411
1580572324814308333,43,1580572324814308333,world,27.803959809541475,-0.9462371428860337,-0.6309950872156218,0.03306735109756036,0.7007790785889564,-0.0391989892923084,0.7115326371123076
1580572324929091784,44,1580572324929091784,world,28.467675534916832,-1.0484108114610686,-0.6548808932822077,0.03575447055893759,0.7007414068465396,-0.040850084568581906,0.7113469275849473
1580572325043042102,45,1580572325043042102,world,29.162572520257175,-1.145489164916973,-0.6765941553511547,0.03762278522391568,0.7001800503488509,-0.04205817850294315,0.7117327654198697
1580572325165041706,46,1580572325165041706,world,29.859125498786575,-1.2526048359506463,-0.7028133938180288,0.03902542492434208,0.6989977153639813,-0.04246172218634567,0.7127947494624659
1580572325287989165,47,1580572325287989165,world,30.5215029686311,-1.3581683578616364,-0.7063537733269865,0.039672760934222645,0.6979292104789927,-0.04199636528390769,0.7138328074305549
1580572325407042833,48,1580572325407042833,world,31.19472051183628,-1.4597884667975238,-0.7325180114716892,0.04029191179135084,0.6982061238390972,-0.041618989331729,0.7135493122628649
1580572325525470897,49,1580572325525470897,world,31.84294574693083,-1.5619139510694238,-0.7554324119534659,0.04106468306913023,0.699193467139561,-0.041242388069306496,0.7125596414667134
1580572325643245035,50,1580572325643245035,world,32.488173803560564,-1.6623312273291582,-0.7779799894998769,0.04174079932411399,0.7003544647533911,-0.04084644031721547,0.7114020705608257
1580572325760174061,51,1580572325760174061,world,33.141630853024935,-1.760820586408128,-0.7897356887057247,0.042522613876153845,0.7016488356514509,-0.040439707296980675,0.7101024922082614
1580572325877896594,52,1580572325877896594,world,33.75044459174955,-1.8581020330786835,-0.8093708565653746,0.043741208127644156,0.7020829446572164,-0.03917386118907602,0.7096701738904124
1580572326001252138,53,1580572326001252138,world,34.41712057287114,-1.967919935345158,-0.8263708692142746,0.044661701335546186,0.7022905315738907,-0.03776369223691815,0.7094837878326017
1580572326116407515,54,1580572326116407515,world,34.9727743438151,-2.0589614608267715,-0.8369234255509879,0.04494643744139103,0.7027991662200714,-0.03636646951660619,0.7090350256447808
1580572326234032512,55,1580572326234032512,world,35.51859464894605,-2.1452599254095928,-0.8515614588487681,0.04501289322954975,0.7027927546058712,-0.03437357592129243,0.709136652290771
1580572326352936220,56,1580572326352936220,world,36.13196723779432,-2.2255278425250697,-0.8819392148909024,0.044369658782761265,0.7026505728751522,-0.033601514290175105,0.7093550498610565
1580572326470760511,57,1580572326470760511,world,36.65667700641219,-2.3020742686104594,-0.9009682434678128,0.043644627280755,0.7036313185745457,-0.032514030710972745,0.7084780164288209
1580572326592520980,58,1580572326592520980,world,37.174990928761275,-2.3793365680566563,-0.9196375323530859,0.04322740304809091,0.7049060408326088,-0.031752493091142954,0.7072698496139633
1580572326711652921,59,1580572326711652921,world,37.622018531672595,-2.4470725887069134,-0.9353867279067822,0.04372854260810754,0.7060941841156474,-0.030990244727583716,0.7060867766584452
1580572326829472526,60,1580572326829472526,world,38.066844797490965,-2.5132309013075704,-0.9383931048575267,0.04483014353130986,0.707274222527426,-0.029991512998552617,0.7048786758297242
1580572326954585348,61,1580572326954585348,world,38.49193503523548,-2.575962544134479,-0.9510510359807194,0.04604917491714316,0.7071399325068278,-0.029182362671082738,0.7049687900466262
1580572327075672115,62,1580572327075672115,world,38.9836888017111,-2.637360354671064,-0.9840320354687098,0.04573105171965829,0.7058375456266535,-0.030096348801047567,0.7062551337874178
1580572327194220032,63,1580572327194220032,world,39.313923356217266,-2.6837419109950478,-0.9969023282895417,0.04482955345693689,0.7046119105581462,-0.030857822507908632,0.7075028295763673
1580572327319019594,64,1580572327319019594,world,39.61792116247578,-2.7296545178518077,-1.0083619738704082,0.04454585796275815,0.703919146125888,-0.030665863610008257,0.7082182998840951
1580572327438931346,65,1580572327438931346,world,39.87459316332678,-2.7693383607231263,-1.016305298374517,0.04505207164123535,0.7031554452318661,-0.030361600168114945,0.7089576190702382
1580572327557175216,66,1580572327557175216,world,40.104024031447615,-2.8001058002008516,-1.0366325455275796,0.045165368200394275,0.7027943464753628,-0.03037939168589973,0.7093076363058225
1580572327675601532,67,1580572327675601532,world,40.27995414791287,-2.8261538431476314,-1.0390362837803666,0.04493599232136709,0.7027561892718892,-0.030350604811237646,0.7093612888036188
1580572327801032092,68,1580572327801032092,world,40.4214036795122,-2.847338654500631,-1.0437777993926822,0.0447992343400323,0.7021873690641677,-0.030421292784215254,0.7099299784840454
1580572327917963202,69,1580572327917963202,world,40.5233243267858,-2.862023888762539,-1.0470297248816296,0.04485941258753623,0.7011560304106449,-0.030412147086699908,0.7109451922325422
1580572328034847164,70,1580572328034847164,world,40.581388655542256,-2.863093700946375,-1.0452002351456624,0.04473583169073507,0.7004267461956941,-0.030537037597595486,0.7116661110934636
1580572328158223608,71,1580572328158223608,world,40.65437323458379,-2.8746178776958073,-1.050804189292366,0.04460984083578523,0.6997271585987322,-0.030670405286081014,0.7123561266313202
1580572328275246584,72,1580572328275246584,world,40.7085406823129,-2.8840983486945584,-1.0542423889291452,0.044539533034980545,0.699035950386921,-0.03064481643736593,0.7130399991662427
1580572328393330229,73,1580572328393330229,world,40.75077137813386,-2.8910875689365936,-1.0567100508949956,0.04448907079500262,0.6985192772912364,-0.03067736816712484,0.713547829557289
1580572328511970510,74,1580572328511970510,world,40.78435070833055,-2.896711198534912,-1.0575022374316374,0.04455559836809116,0.6981883500101769,-0.0306332878669648,0.7138693896884584
1580572328633900798,75,1580572328633900798,world,40.79113934944151,-2.8953594230596575,-1.0589433384009617,0.04447219163252005,0.6978276683827691,-0.030772604955765392,0.7142211516612618
1580572328756424962,76,1580572328756424962,world,40.83085006886384,-2.901199076258827,-1.060568621128179,0.04436816447605489,0.6975491294798899,-0.03079796711873953,0.7144985720538105
1580572328878300868,77,1580572328878300868,world,40.85970386719937,-2.9055465173788715,-1.05792942547862,0.04432423141365994,0.697293734057318,-0.03063028698027608,0.7147577473753272
1580572328998053921,78,1580572328998053921,world,40.8897522784293,-2.9090004612441698,-1.0568346692530994,0.044257853439901566,0.6970350723675998,-0.03050761427298009,0.7150193087431514
1580572329121754598,79,1580572329121754598,world,40.9136530250067,-2.91478506280275,-1.0563013260839123,0.04419901659817679,0.6968406692823245,-0.03035928806641193,0.7152188260332611
1580572329242973572,80,1580572329242973572,world,40.96147094972496,-2.9213548575914148,-1.058963833848983,0.044006357680180075,0.6967035718966086,-0.030222064544777764,0.7153700470180511
1580572329361295833,81,1580572329361295833,world,41.00743912780175,-2.9271988494029246,-1.0580375285969925,0.04378104465042374,0.6966211379784681,-0.030027895469217348,0.7154723254429156
1580572329481079427,82,1580572329481079427,world,41.05770783048234,-2.932802361523403,-1.058377866380546,0.04338270009456933,0.6965321181534041,-0.029872732255202296,0.7155897802323339
1580572329596594941,83,1580572329596594941,world,41.10918058788576,-2.938782274316414,-1.059159034557724,0.0429859907471263,0.6964326236391795,-0.029631846380971296,0.7157204260357403
1580572329713652368,84,1580572329713652368,world,41.16245437938965,-2.942571338411069,-1.0617921739844824,0.04252733146228688,0.6963180092880289,-0.029479006805183953,0.7158657543543832
1580572329838235805,85,1580572329838235805,world,41.23556828239852,-2.951620671779673,-1.0633161477351516,0.04206764936618958,0.6962892838821207,-0.029098504642864165,0.7159364197621715
1580572329951559611,86,1580572329951559611,world,41.30771839953107,-2.959746077469041,-1.0633614321809874,0.04166197307174368,0.6962300325647518,-0.028659937611302068,0.7160354020487759
1580572330066215095,87,1580572330066215095,world,41.38388199742466,-2.9691307735927452,-1.0661359568142315,0.041196887127518025,0.6961263254510539,-0.028201197265370594,0.716181290644633
1580572330181210403,88,1580572330181210403,world,41.46258818972857,-2.9781519633807356,-1.0684159291793964,0.04071186524707676,0.6962390362554591,-0.027713978850974638,0.7161185149559872
1580572330296262692,89,1580572330296262692,world,41.53926557741126,-2.9863221876287573,-1.0703565180100618,0.04023943674993977,0.6964214646201808,-0.027287156396390334,0.7159842476470576
1580572330410697660,90,1580572330410697660,world,41.582588416078494,-2.9898966693340334,-1.069660099898507,0.039800371755071,0.6964739244318107,-0.026896163999036334,0.7159725095064031
1580572330530402368,91,1580572330530402368,world,41.65321144041104,-2.99622520943763,-1.069680984715717,0.03935591130497022,0.6965624312868651,-0.026534744752242462,0.7159245351402569
1580572330650735673,92,1580572330650735673,world,41.728509906890864,-3.005691031130044,-1.0744235647946931,0.03923962966287462,0.6966811709220514,-0.025854338179406418,0.7158402027733837
1580572330765136137,93,1580572330765136137,world,41.78123515824187,-3.0107661933819356,-1.0745420479915504,0.03883788678075809,0.6967581943222596,-0.025604036563445363,0.7157961436689259
1580572330886316847,94,1580572330886316847,world,41.82639203034488,-3.0148326222475657,-1.0779873567015974,0.038272499401540164,0.6969847661570739,-0.02565870480520071,0.7156039922037813
1580572331002844525,95,1580572331002844525,world,41.85236988973537,-3.017296756649854,-1.0756535589968506,0.038196129606689944,0.6975874835841476,-0.025467096045787913,0.715027405123595
1580572331116467401,96,1580572331116467401,world,41.86537169922867,-3.0192685188925514,-1.0764766459186834,0.038153990045287973,0.6978159369584891,-0.025392926122423474,0.7148093752074361
1580572331229075869,97,1580572331229075869,world,41.86787178448908,-3.0196903948881193,-1.0793765001910183,0.03816301793748577,0.6971646940710209,-0.02544385956678409,0.715442260998277
1580572331349919464,98,1580572331349919464,world,41.870066083119674,-3.0207889937359322,-1.0805141426885152,0.03810380010638485,0.6962008362970676,-0.025500534554408306,0.7163813891407972
1580572331464336156,99,1580572331464336156,world,41.88312891455897,-3.0239838108053334,-1.0859172277874354,0.03841785917489612,0.6961631489964292,-0.025173256346094058,0.7164128077549039
1580572331580890929,100,1580572331580890929,world,41.87009800716433,-3.0242816241632307,-1.082696635860665,0.038551370667557525,0.6963835336539089,-0.024979750739239494,0.7161981956528181
1580572331697100653,101,1580572331697100653,world,41.86298021890414,-3.022835353232863,-1.0811434963878659,0.038516224476197146,0.6961753332463452,-0.02502552373897399,0.7164008686358597
1580572331813027805,102,1580572331813027805,world,41.85752627303221,-3.0214879490786846,-1.0795298264057953,0.03848471254832643,0.6962005910941493,-0.02507210848021902,0.7163763761791722
1580572331929101834,103,1580572331929101834,world,41.856605691637995,-3.0209451772315656,-1.0796995640071403,0.03850870507302483,0.6963246589283901,-0.02505823871324715,0.7162549415471174
1580572332045370828,104,1580572332045370828,world,41.84765181137149,-3.020203267058106,-1.0796488236716817,0.038426148440672284,0.6961909306331368,-0.025121042137378178,0.7163871300828046
1580572332167049537,105,1580572332167049537,world,41.848044469655825,-3.020631454178022,-1.0781322889945217,0.038439670789632056,0.696232828484901,-0.025095627014692812,0.7163466304985237
1580572332281263551,106,1580572332281263551,world,41.85031846377798,-3.0206717306112463,-1.0781356102323496,0.038455133440146776,0.6962595113009519,-0.02508898653558434,0.7163200767548404
1580572332397685312,107,1580572332397685312,world,41.850997279639444,-3.0215194797403644,-1.0790231073155798,0.038430563354308875,0.6962016113533304,-0.025115060795627985,0.7163767817935541
1580572332518496508,108,1580572332518496508,world,41.851993104067766,-3.021448108468891,-1.0790112383489063,0.038450180773019114,0.6962394070504778,-0.02509170157578775,0.7163397763361753
1580572332637047329,109,1580572332637047329,world,41.84739692684092,-3.0214513033573853,-1.0818052311718018,0.038339768416267676,0.6962001511961953,-0.02525685534984546,0.7163781130391423
1580572332752220684,110,1580572332752220684,world,41.84791527807496,-3.0221223307750167,-1.0799180773146935,0.038362605621889444,0.6961953089132482,-0.02523447103652678,0.7163823251670897
1580572332871175486,111,1580572332871175486,world,41.84697457373517,-3.0214129083922394,-1.0795321677077219,0.03836686170460804,0.6962117108427859,-0.025238294389105312,0.7163660901377048
1580572332994215815,112,1580572332994215815,world,41.8474541379195,-3.0221709556268133,-1.0792179712288101,0.038371071377096756,0.6962041735436241,-0.02522657284981635,0.7163735888741313
1580572333110226134,113,1580572333110226134,world,41.84674983428245,-3.021713622648453,-1.0795038385751763,0.03838004482233594,0.696182647070084,-0.02521722090103555,0.7163943269958406
1580572333227886235,114,1580572333227886235,world,41.88664585485057,-3.0201242463039195,-1.0843680385057848,0.03830748480638049,0.696177013906063,-0.025249716939264498,0.716402563836485
1580572333350149865,115,1580572333350149865,world,41.88599185729625,-3.020262379355656,-1.0829012534178855,0.03835152635823772,0.696197200449309,-0.025190942305361886,0.7163826475758627
1580572333465737680,116,1580572333465737680,world,41.885189230205626,-3.020966716967613,-1.0827674492591646,0.0384010638378546,0.6961846161815255,-0.025148157102907732,0.7163937133890226
1580572333591381739,117,1580572333591381739,world,41.88405532464604,-3.020803778821608,-1.082027308093279,0.03840484986770688,0.6961911209414714,-0.025117051292798964,0.7163883469069949
1580572333706632871,118,1580572333706632871,world,41.882826397934274,-3.0202098874443966,-1.0820259688697131,0.03839142939727297,0.6961829765483201,-0.025163780326049778,0.7163953150057144
1580572333823223798,119,1580572333823223798,world,41.86553510019887,-3.020300512306778,-1.0833087490614322,0.03844830576842417,0.6961921152239048,-0.025066911507542974,0.716386724474282
1580572333941405260,120,1580572333941405260,world,41.8658436897927,-3.0212982931117196,-1.0820118630401137,0.038484017914042316,0.6962269771626337,-0.025005462269592396,0.7163530789677173
1580572334060159223,121,1580572334060159223,world,41.86517022389502,-3.0212973355398463,-1.0818108532133994,0.038489803624081324,0.6962182003907597,-0.024995133417030045,0.7163616387008668
1580572334180985759,122,1580572334180985759,world,41.863721790608345,-3.0210350071839596,-1.081142819510764,0.03850482585075672,0.696236753054888,-0.02499906477146854,0.7163426781822613
1580572334296702121,123,1580572334296702121,world,41.86388643998348,-3.0211195786374425,-1.0813454390986657,0.03848656228962173,0.6961855325655628,-0.024989326318947742,0.7163937549895014
1580572334418170500,124,1580572334418170500,world,41.871654951506734,-3.020811726221563,-1.0832988561655288,0.03848087850934501,0.6961857317115787,-0.025046373713588903,0.7163919661667294
1580572334533599490,125,1580572334533599490,world,41.87285438697516,-3.022012832119305,-1.0820273957541735,0.0385113678794978,0.6962111371440861,-0.024981136326989454,0.716367879025091
1580572334650524706,126,1580572334650524706,world,41.87474254206521,-3.0223998819936506,-1.0824671249271827,0.038536492506345284,0.6961905865464074,-0.02496427687501148,0.7163870988821572
1580572334773110494,127,1580572334773110494,world,41.87432651030174,-3.021979774205424,-1.0824835763935567,0.038519761931302514,0.6962026423167935,-0.024978760689618094,0.7163757209554548
1580572334891113811,128,1580572334891113811,world,41.873381234326416,-3.0218245325389628,-1.0826228443497392,0.038510427384996125,0.696183484229631,-0.024980551052395324,0.7163948782015173
1580572335013795902,129,1580572335013795902,world,41.86996545016408,-3.0202091610830504,-1.083820969287145,0.03856555045239076,0.6961722611477921,-0.024912975621677665,0.716405143029742
1580572335131660570,130,1580572335131660570,world,41.870857963605644,-3.020449934730289,-1.0825426487920833,0.03859596390271447,0.6962054642379718,-0.024876343667798735,0.7163725176308762
1580572335251356499,131,1580572335251356499,world,41.87076422071513,-3.0199222864076845,-1.0830259153023283,0.0385383982088321,0.6962080577824868,-0.024931270817286317,0.7163711759744427
1580572335369266186,132,1580572335369266186,world,41.87059081321861,-3.020471135510433,-1.0826193463775757,0.038576552146734715,0.6962007385980564,-0.024891372886979776,0.7163775514202115
1580572335492642864,133,1580572335492642864,world,41.86981317536308,-3.020085597324745,-1.0825046869714914,0.038584347549991835,0.6961947480434582,-0.024878549503745306,0.7163834587972951
1580572335608410559,134,1580572335608410559,world,41.866861462208064,-3.0212181588368825,-1.0847574055666254,0.038554811212502905,0.6961759292477321,-0.024891624497080364,0.7164028238362261
1580572335725378489,135,1580572335725378489,world,41.8650271047393,-3.0218641884608948,-1.0833623590245463,0.038564717664175636,0.6962048060309769,-0.02483845920497315,0.7163761057694567
1580572335840442745,136,1580572335840442745,world,41.863248764927135,-3.0216864449856766,-1.0825740568270952,0.038579174138603005,0.6962136541172269,-0.024846577843408737,0.7163664021532682
1580572335956533766,137,1580572335956533766,world,41.86250882646,-3.0213963663361163,-1.0821378270788378,0.038624520158728234,0.6962024737050218,-0.024792276121785042,0.716376750592456
1580572336075666060,138,1580572336075666060,world,41.861972015846746,-3.021794075593262,-1.0821652756614464,0.03860354339356907,0.6962073577013419,-0.024808832470995596,0.7163725384317313
1580572336190423991,139,1580572336190423991,world,41.853421396792,-3.0203896198945284,-1.0824131747955548,0.038472870998260474,0.696177930065238,-0.025001375224789762,0.7164014926365564
1580572336306366281,140,1580572336306366281,world,41.85625821077226,-3.0211399751704464,-1.0810801891471966,0.03850914852261006,0.6961877071525747,-0.02494865857203563,0.7163919453664384
1580572336422006072,141,1580572336422006072,world,41.858445782248054,-3.0217639195554815,-1.0814637918985177,0.03850861990209326,0.6962047868544552,-0.02495547922292244,0.7163750553307473
1580572336539379593,142,1580572336539379593,world,41.86015093517558,-3.0225557075914313,-1.0820489561651732,0.0384968216682516,0.6961995532513587,-0.024943824260602904,0.7163812539368983
1580572336655759510,143,1580572336655759510,world,41.86058645554024,-3.0227083140340154,-1.082489764427371,0.03852427892555367,0.6961955036127764,-0.02492253203078972,0.7163844364219033
1580572336773182955,144,1580572336773182955,world,41.86055176216345,-3.0225768741556935,-1.0839107797681216,0.03856893593988894,0.6961737556836788,-0.024857159146843003,0.716405403028547
1580572336889354441,145,1580572336889354441,world,41.86134651713287,-3.0225002477383898,-1.0822525806388255,0.0386105761361812,0.6961788685802786,-0.02482256471436462,0.7163993710319702
1580572337015263298,146,1580572337015263298,world,41.85987552281638,-3.0222905748301274,-1.0825474804733863,0.038559515853813855,0.6961887283963647,-0.024858169200236514,0.7163912797568055
1580572337130255591,147,1580572337130255591,world,41.85931453564298,-3.0219832860699096,-1.0822879201393345,0.038611713615345926,0.696195040423349,-0.024825973402825247,0.7163835003983695
1580572337246008860,148,1580572337246008860,world,41.85822000588988,-3.021696772759867,-1.0820467856938079,0.038596739545403706,0.6962039000348966,-0.024836449074648742,0.7163753257408593
1580572337367501646,149,1580572337367501646,world,41.855019220547014,-3.021354399992492,-1.0810604783801754,0.038584922327621285,0.6962034389035985,-0.024873259077395793,0.7163752009362049
1580572337485842003,150,1580572337485842003,world,41.856716298344345,-3.022242458534399,-1.080561779157149,0.03861151528778511,0.6962014818624759,-0.02484451015017949,0.7163766153876816
1580572337600241628,151,1580572337600241628,world,41.85878891252964,-3.02254109371688,-1.0812564713256885,0.038595463552613514,0.6961954614082587,-0.024855729855763304,0.7163829387836621
1580572337719402049,152,1580572337719402049,world,41.85781559528714,-3.0225155314634904,-1.0808437990134614,0.038593033735566905,0.6961964507437262,-0.02486364228349221,0.7163818779546802
1580572337837072621,153,1580572337837072621,world,41.85826353375568,-3.0225508064071356,-1.0813098709500144,0.03858368145721257,0.6962094705252623,-0.024863666732686363,0.7163696367066023
1580572337950980148,154,1580572337950980148,world,41.84559865479582,-3.02015716738095,-1.081393667384913,0.03859059179437393,0.6962144571235876,-0.024890581124050494,0.7163635212044003
1580572338070990765,155,1580572338070990765,world,41.844187339928524,-3.021431250870238,-1.0801707396715043,0.038652569450995156,0.6962148917689915,-0.02479488676536338,0.7163630739802519
1580572338186327567,156,1580572338186327567,world,41.84527046581968,-3.021505476737266,-1.0805503965750303,0.038643252167143136,0.6961999314715441,-0.02480867592480928,0.7163776970251617
1580572338302265721,157,1580572338302265721,world,41.846404496611356,-3.0213935508978045,-1.0806870496954435,0.038623339841349955,0.6962099941029714,-0.02482592738271257,0.716368284644284
1580572338421320204,158,1580572338421320204,world,41.84281088112327,-3.0210533477594046,-1.0797923462021508,0.03865481282397146,0.6962158835292115,-0.02479164312166949,0.7163620963264903
1580572338540172603,159,1580572338540172603,world,41.855982127918764,-3.0210930380682903,-1.0797210172610994,0.03874781193779824,0.6962163486473728,-0.024733686091274642,0.7163586641271883
1580572338655702457,160,1580572338655702457,world,41.85556275907112,-3.0213010773329474,-1.079378366845801,0.038698608674937594,0.6962139967353445,-0.024750779988656935,0.716363053179122
1580572338771983118,161,1580572338771983118,world,41.855140486662485,-3.0210556313892925,-1.0793655917240903,0.038708482722940946,0.6962144822462741,-0.024754280585410602,0.7163618259113844
1580572338890001720,162,1580572338890001720,world,41.851947157999135,-3.0215386918700577,-1.0783471017544652,0.038712524434719446,0.696210467889244,-0.02472388639475773,0.7163666413651081
1580572339009454037,163,1580572339009454037,world,41.85241859068279,-3.020812977487373,-1.0787583229816002,0.03871199135181472,0.696211061061561,-0.024750262059583816,0.716365174891268
1580572339124947354,164,1580572339124947354,world,41.866726846019105,-3.0222649113115674,-1.083228863392251,0.03876620247673093,0.6961883052634533,-0.024643105374834197,0.7163880765017979
1580572339237819875,165,1580572339237819875,world,41.86728700632578,-3.0226715674935756,-1.0827438891339414,0.03877697282178242,0.6961935096735631,-0.024625628549765338,0.7163830635869685
1580572339356009102,166,1580572339356009102,world,41.86674879581297,-3.023510647932043,-1.0823546917596767,0.03879500208297002,0.6961986638006549,-0.02456070156173454,0.7163792154750225
1580572339468063065,167,1580572339468063065,world,41.86542632059347,-3.023080698390755,-1.0817063198866812,0.038795372544424424,0.6962106607930043,-0.024570170593542273,0.7163672133930971
1580572339585505787,168,1580572339585505787,world,41.864795244606704,-3.022618707918988,-1.0824260144595401,0.038785304072079106,0.6961963121619185,-0.02460145797013138,0.7163806507191924
1580572339698479880,169,1580572339698479880,world,41.85480699379487,-3.022503249564144,-1.0836679021641178,0.0387030130719628,0.6961716477179223,-0.02465133275230602,0.7164073582165382
1580572339809646958,170,1580572339809646958,world,41.85487109191684,-3.0225792877789353,-1.082915368014942,0.038744704033374947,0.6961869578893508,-0.024612433782548095,0.7163915605609448
1580572339921933796,171,1580572339921933796,world,41.85585913929836,-3.022893495937777,-1.0829497533232955,0.03873649529289555,0.6961916608552993,-0.024609550672257566,0.7163875772919354
1580572340034911615,172,1580572340034911615,world,41.85534962220922,-3.022787369185383,-1.0827948624783268,0.0387351766921825,0.6962007799039421,-0.02462152106416259,0.7163782794446669
1580572340147516331,173,1580572340147516331,world,41.855525614586696,-3.0229326722427556,-1.0827172582848936,0.038749707621721426,0.6962080686305513,-0.024609978049510133,0.7163708223591503
1580572340261056689,174,1580572340261056689,world,41.869798199789145,-3.0239329385942986,-1.0855982200023275,0.03871806731570139,0.696190948949803,-0.024660722829175127,0.7163874108885705
1580572340381160811,175,1580572340381160811,world,41.87008401159987,-3.024178042144313,-1.0851829355027762,0.038739991190153894,0.6961853819480083,-0.02462696951970372,0.7163928397784086
1580572340493259221,176,1580572340493259221,world,41.869980311831355,-3.024396006245939,-1.084828537502788,0.038752092612183764,0.6961821271321352,-0.024613773914649556,0.7163958038100956
1580572340606408208,177,1580572340606408208,world,41.870197303811324,-3.0247664768365308,-1.0849140147953182,0.038768985298069415,0.6961813679612847,-0.024587731447183063,0.7163965422160814
1580572340719031629,178,1580572340719031629,world,41.86871592694952,-3.024655332152901,-1.0845512172177587,0.03880251814955976,0.696194922938567,-0.024544013819953543,0.7163830219858688
1580572340836297762,179,1580572340836297762,world,41.866011194269234,-3.0241342479304913,-1.0846537568748467,0.038715420944169986,0.6961554527320735,-0.02465289277856935,0.7164223547470031
1580572340949637619,180,1580572340949637619,world,41.865785933633276,-3.024680051368434,-1.083248866060532,0.03871189280660632,0.6960865686212996,-0.024621153095696777,0.7164905111665508
1580572341064808317,181,1580572341064808317,world,41.867096740029844,-3.0250754130840125,-1.0834777395572566,0.038663898298123466,0.6959563190809186,-0.02456475204078203,0.7166216061716514
1580572341182246865,182,1580572341182246865,world,41.87007507031488,-3.026163428535077,-1.0838168883489017,0.03864865901844624,0.6957653164294231,-0.024515990017061767,0.7168096390505025
1580572341294872733,183,1580572341294872733,world,41.87448788755766,-3.0281015830746227,-1.0843034433339227,0.038656433467186224,0.6956076079760489,-0.024358501891310957,0.7169675701740026
1580572341406744536,184,1580572341406744536,world,41.88272868836688,-3.0257700466812967,-1.0860609384435724,0.03840244539758418,0.6955083445380982,-0.02455570884957379,0.7170707532816188
1580572341521224983,185,1580572341521224983,world,41.90320460755677,-3.028534232048134,-1.0861308007035317,0.03828413807163677,0.6954547838052514,-0.02443712990117996,0.7171330923747916
1580572341640605580,186,1580572341640605580,world,41.92934091765524,-3.0311062117668968,-1.08715423584154,0.03810101324152662,0.6954347459702206,-0.024323403514338007,0.7171661402860491
1580572341753572986,187,1580572341753572986,world,41.958348007027794,-3.0344344503346887,-1.087092622571343,0.037970129989517584,0.6953778711125135,-0.024125571888544216,0.7172349116293018
1580572341867492196,188,1580572341867492196,world,41.989652036733844,-3.0354721629935186,-1.0898500569155027,0.03767564807451582,0.6953061238882534,-0.02405398438331729,0.7173224660831384
1580572341985338550,189,1580572341985338550,world,42.03384128548025,-3.040548369304246,-1.0897804672444567,0.03744357258245485,0.6952726082158339,-0.023798808034448653,0.7173755191522592
1580572342098913449,190,1580572342098913449,world,42.08168211133323,-3.046414658544668,-1.0903581772273832,0.03715794937446516,0.6952122078910344,-0.023537432335376102,0.7174575214239237
1580572342211607631,191,1580572342211607631,world,42.1366242779033,-3.0495498497835616,-1.0953501092655475,0.036896873260681494,0.6950931689148158,-0.02342201711442706,0.7175900802488567
1580572342325145986,192,1580572342325145986,world,42.19636558556174,-3.056928719475632,-1.0967354142382275,0.03661536673231849,0.6950563291411865,-0.023105508650219667,0.7176504535802252
1580572342443293126,193,1580572342443293126,world,42.259757409042706,-3.065780416561547,-1.0975077808666631,0.03640554330583528,0.6950048702189101,-0.02260958290198526,0.7177267876860673
1580572342555753673,194,1580572342555753673,world,42.32397435815986,-3.072864706487736,-1.0981761513510193,0.036175321270910395,0.6949066019624339,-0.022195939936071492,0.7178465098859025
1580572342671148815,195,1580572342671148815,world,42.390754443175126,-3.0797992116953328,-1.0988920800054318,0.03598237779013757,0.6947857973491609,-0.021861530424294718,0.7179833345312068
1580572342785662124,196,1580572342785662124,world,42.46766947758315,-3.0855127945554557,-1.100774959455272,0.035701096619933585,0.6946547613599537,-0.021563740697043383,0.7181331433862856
1580572342900013148,197,1580572342900013148,world,42.54349083874227,-3.094030221018668,-1.1014526447572606,0.03542959605879604,0.6945150444850805,-0.021220482534166238,0.7182919867366389
1580572343014694305,198,1580572343014694305,world,42.62179576371078,-3.10239450245282,-1.1017122682262679,0.035220278153763364,0.6944277697508495,-0.021003704305082246,0.7183929468703939
1580572343133556544,199,1580572343133556544,world,42.70385368070215,-3.111775003245285,-1.1027979328406756,0.0350201787270293,0.6943583420441378,-0.02077938651727182,0.7184764092567109
1580572343247976854,200,1580572343247976854,world,42.80136870217615,-3.1200907120242745,-1.1106525745752904,0.03473649797733162,0.6942157289449445,-0.020720988656039316,0.7186296300023943
1580572343361595408,201,1580572343361595408,world,42.8942033885581,-3.13097617756515,-1.1105397075160046,0.03453851873153535,0.6942644320540524,-0.020675852857643246,0.7185933833941449
1580572343477849128,202,1580572343477849128,world,42.99098601006301,-3.143192635009577,-1.1113233320792721,0.034360930769162364,0.6943186599915695,-0.020698162560586174,0.7185488917082551
1580572343590861946,203,1580572343590861946,world,43.08990129271081,-3.154842073895879,-1.1132058300559295,0.03421799330709723,0.6942447178933239,-0.02083514951563545,0.7186232330650892
1580572343704773448,204,1580572343704773448,world,43.21715019018245,-3.170530635993429,-1.119696384773499,0.03412189040123424,0.6939977034802944,-0.021139436413774613,0.7188574980082919
1580572343825019891,205,1580572343825019891,world,43.32972138512291,-3.1834565404345216,-1.1191070888383226,0.03416325484152728,0.6938431463481911,-0.021427181416133367,0.7189961509482188
1580572343938460990,206,1580572343938460990,world,43.44053296285935,-3.195402531477175,-1.1189507125298372,0.03428794918293652,0.6937452883516619,-0.02183724562694845,0.7190723111155989
1580572344058986110,207,1580572344058986110,world,43.55760296298085,-3.210323053790332,-1.1215578808960216,0.03445175772561934,0.6937239597515445,-0.02224803192749613,0.719072466536264
1580572344171246010,208,1580572344171246010,world,43.66731620516891,-3.2254009252161557,-1.1233163140613582,0.03468670953516997,0.693686575540827,-0.022776932675115793,0.7190806726996715
1580572344283652587,209,1580572344283652587,world,43.77874272243776,-3.2442403996340623,-1.131712247712759,0.03514052505689203,0.6935802611527346,-0.023138776859894777,0.7191496028474429
1580572344397167402,210,1580572344397167402,world,43.89564353666295,-3.2631593220169695,-1.1313671742814053,0.0355134844844665,0.6935530960176789,-0.023616667804346115,0.7191420190933365
1580572344510080328,211,1580572344510080328,world,44.011576700071686,-3.2780458514320108,-1.1318203126761883,0.0359700932196706,0.6936235410059356,-0.02421956829798339,0.7190312581609222
1580572344629692410,212,1580572344629692410,world,44.13051778948311,-3.2945539315189816,-1.1310753243918512,0.036387145735193235,0.693846076851286,-0.02478743189109649,0.7187762048339511
1580572344740941131,213,1580572344740941131,world,44.23670636312889,-3.310465183730247,-1.1312979984170006,0.03687327194323159,0.694062306585494,-0.02524877316521414,0.7185265981705862
1580572344852264568,214,1580572344852264568,world,44.31425789465233,-3.323641663759396,1.188273216298521,0.03846476611115772,0.6751876620195044,-0.024068576646678108,0.7362491959986807
1580572344969214555,215,1580572344969214555,world,44.407526180757564,-3.3392057992587834,1.1932998984404408,0.03909286898092284,0.6752480114616857,-0.024285541667850553,0.7361535591406332
1580572345082119058,216,1580572345082119058,world,44.84065240151265,-3.4100669987806995,0.9013896978910383,0.03669074054669109,0.6713502069349366,-0.02765958890959709,0.7397145884638003
1580572345195684040,217,1580572345195684040,world,44.927460274947656,-3.424147216192514,0.9048824923023568,0.03693442539565246,0.6709340930621914,-0.02807819568966617,0.7400641333651633
1580572345305641466,218,1580572345305641466,world,45.015026559515384,-3.4376388340151713,0.9066927902969955,0.03750139102220066,0.6706009717376551,-0.02843833703690751,0.7403237683914818
1580572345421939804,219,1580572345421939804,world,45.222656060988314,-3.470540236058871,0.9148649904980477,0.03859184490246382,0.6705862780487647,-0.028247944707497034,0.7402883927657977
1580572345533272517,220,1580572345533272517,world,45.31444985282687,-3.490574385785826,0.9200304461770452,0.040631805922797824,0.6709608571520039,-0.027388169629655887,0.7398720007782625
1580572345646059866,221,1580572345646059866,world,45.40751893886933,-3.509180841126809,0.9252024327785797,0.042743436359699495,0.6712122716910158,-0.027135096824413098,0.739534172698725
1580572345763557167,222,1580572345763557167,world,45.506144470400116,-3.5279793429918023,0.9306632232092209,0.04387634096531129,0.6711907590409895,-0.02756675504141108,0.7394714248416042
1580572345880720578,223,1580572345880720578,world,45.632680144950996,-3.546797839475442,0.9317249017569207,0.04434833970730381,0.6711942963559552,-0.029020197679790544,0.7393844072802741
1580572345993725758,224,1580572345993725758,world,45.716548616636906,-3.5624327366238777,0.9367344886233075,0.0450014111606678,0.6712165177303661,-0.03059306007950033,0.7392613601095525
1580572346110213026,225,1580572346110213026,world,45.79822461904713,-3.5764128512738926,0.9403272046070619,0.04526863264146842,0.6709170565595518,-0.03213796739234263,0.7394513137722655
1580572346226076960,226,1580572346226076960,world,46.0095362746831,-3.6021680724250524,0.9437208200103377,0.045650267730520985,0.6705118099345422,-0.034177280360130846,0.7397039923946561
1580572346339149252,227,1580572346339149252,world,46.07720023200929,-3.6148770979734435,0.9488553070722805,0.04643529635864536,0.6702546011966796,-0.035750345077572604,0.7398138638414782
1580572346453502470,228,1580572346453502470,world,46.14425171672013,-3.626933689228488,0.9526554755236969,0.04714456582245433,0.6698124703797688,-0.037218308751456514,0.7400969526210889
1580572346569785868,229,1580572346569785868,world,46.212789908748846,-3.641495116277717,0.9550401153770336,0.04805881558052399,0.6693225545393525,-0.0385927109866242,0.7404108768087205
1580572346684743428,230,1580572346684743428,world,46.357880062728825,-3.664394011385985,0.9510041066861001,0.048973225095750306,0.6688513872341297,-0.039763383149454365,0.7407147904382645
1580572346802226124,231,1580572346802226124,world,46.424023717635336,-3.6799896809843498,0.9540927190288322,0.050029513367160265,0.6685701985926118,-0.04087382860827783,0.74083758614896
1580572346914408480,232,1580572346914408480,world,46.48805805798755,-3.6948268274693756,0.9559085135221457,0.051080053938803965,0.6683126069916103,-0.04201049144762313,0.740934679821605
1580572347029045501,233,1580572347029045501,world,46.48248002847705,-3.6978953669947625,0.9569977707184556,0.05207308126858604,0.6680646314266554,-0.043074174898559726,0.7410281412035856
1580572347145243072,234,1580572347145243072,world,46.545293490004816,-3.7108978930621515,0.9594205491129744,0.05284087555812881,0.6678606282488697,-0.044315591318291686,0.7410844335547506
1580572347256819625,235,1580572347256819625,world,46.601221043037654,-3.7240223117183504,0.9646771121797704,0.053656717836981796,0.6677886768002291,-0.045391467521398596,0.7410255773315363
1580572347372947628,236,1580572347372947628,world,46.62990948482876,-3.7426897890231814,0.964995002261869,0.054425399144058646,0.6675953206404248,-0.04635665634987396,0.7410840012490043
1580572347489010131,237,1580572347489010131,world,46.689948681968744,-3.7532307649636554,0.9680517136946101,0.05525511578677075,0.6673977779966778,-0.047433345153403576,0.7411323274484072
1580572347603238034,238,1580572347603238034,world,46.74610512426038,-3.7665296702721403,0.9722608136661499,0.056076709678982734,0.6671482062826941,-0.04826903070976168,0.7412413438835156
1580572347718697885,239,1580572347718697885,world,46.804710544191124,-3.778604262528873,0.9752468911512704,0.0570686238211646,0.6668944491601086,-0.04907614239757702,0.7413410178169016
1580572347833630359,240,1580572347833630359,world,46.87047310673583,-3.7935927702257892,0.9774628703603856,0.058088844065409796,0.6665195995939247,-0.0499442212268051,0.7415409082419309
1580572347949213022,241,1580572347949213022,world,46.939282710998334,-3.818759659558225,0.9903896610698908,0.05898916003496621,0.6662108339541671,-0.05069540849516932,0.7416963457927098
1580572348065975326,242,1580572348065975326,world,47.00313198496457,-3.8321585484520284,0.9950619364054365,0.05996592642256782,0.665913006215006,-0.05166300963002847,0.7418187078443913
1580572348180891539,243,1580572348180891539,world,47.070033562925914,-3.8463901821415085,0.9966910801899207,0.060908222756952866,0.6656323809526487,-0.05269119519888236,0.7419214675349796
1580572348297048992,244,1580572348297048992,world,47.127610957768226,-3.8594014002231916,0.9996645483179449,0.06179823712425023,0.6653489531276837,-0.05386897800787992,0.7420174956116294
1580572348409430544,245,1580572348409430544,world,47.19202290289761,-3.875818065067211,1.0028549467381058,0.0628565363747501,0.6651502075842574,-0.05484123458245291,0.7420354787834964
1580572348533555897,246,1580572348533555897,world,47.26093641124092,-3.8943759778835876,1.0051695722013108,0.06402653005363977,0.6651211876689366,-0.05569103560993874,0.7418981690874349
1580572348665136505,247,1580572348665136505,world,46.97553905168391,-3.8664513776579277,0.9935165733147926,0.06541356604587867,0.6648424880153951,-0.05678322936693184,0.7419442029008655
1580572348780259679,248,1580572348780259679,world,47.03296350475051,-3.880495097784774,0.9956086450697796,0.06652682066646924,0.6645625399178637,-0.057758615882661624,0.7420207287991751
1580572348902693287,249,1580572348902693287,world,47.094617311455835,-3.893875341929995,0.9961818155063895,0.06744083067345903,0.6643809601034413,-0.05874522826952717,0.7420234197644027
1580572349017046789,250,1580572349017046789,world,47.22941722399119,-3.9240453785171816,1.0030808346170943,0.06810782026163245,0.6642841906105331,-0.059763796514761304,0.741967760985854
1580572349137436743,251,1580572349137436743,world,47.28257516519869,-3.935941397833382,1.0056633114969884,0.06898328068530427,0.6641174820414064,-0.0605195813182981,0.7419748704400215
1580572349251319812,252,1580572349251319812,world,47.33474877513834,-3.9458589345934136,1.0067011281737734,0.06991626609759743,0.6638971605348364,-0.06131673667379004,0.7420192326986148
1580572349368718759,253,1580572349368718759,world,47.384163563125185,-3.9586509855818797,1.0090307221821604,0.07067447407668456,0.6637160776844092,-0.0620023456186696,0.742052487591353
1580572349483825845,254,1580572349483825845,world,47.443688591586636,-3.9774926759755935,1.014135592769179,0.07154720225963139,0.6634989213000395,-0.06255368318370656,0.7421167641109303
1580572349607567706,255,1580572349607567706,world,47.49294459784656,-3.9886238463138035,1.0178884434141082,0.07258036641441185,0.6632475660058624,-0.0630464269152545,0.7421994459295094
1580572349721768894,256,1580572349721768894,world,47.53671243300167,-4.000843139406012,1.0220042678137133,0.07355354267921797,0.6629733088579669,-0.06339378014945465,0.742319025130956
1580572349836279267,257,1580572349836279267,world,47.59640998165992,-4.017863578633467,1.029174655647239,0.07421902849620762,0.6627198203814588,-0.06412707841737254,0.7424161558784985
1580572349950450712,258,1580572349950450712,world,47.633480046721274,-4.027627990846913,1.029654554747168,0.07499860799058965,0.6624687620168214,-0.06474182059698252,0.7425085678312683
1580572350065687104,259,1580572350065687104,world,47.668260360083934,-4.038027263707068,1.0288571162876394,0.07567647076138467,0.6622702412225149,-0.06538130398368275,0.742560814781643
1580572350180768383,260,1580572350180768383,world,47.7020969186126,-4.046936680681114,1.0296611695505078,0.07634867954111069,0.6619953527133672,-0.0659119834091562,0.7426902072365669
1580572350293673369,261,1580572350293673369,world,47.75743527426775,-4.065126118508147,1.029399336439866,0.07690538640317139,0.661738927025598,-0.0665235783426435,0.74280672843851
1580572350413453603,262,1580572350413453603,world,47.79675594956899,-4.075069540570148,1.0307598153383708,0.0774856775608249,0.6616517420859027,-0.06720690878189742,0.7427625436156992
1580572350535070345,263,1580572350535070345,world,47.835732982945274,-4.085560152659312,1.0326151454901265,0.07805822486685934,0.6616085625990756,-0.0678373387436154,0.7426837667403322
1580572350649334149,264,1580572350649334149,world,47.86046558646359,-4.091373134815143,1.0353975444082266,0.07866566276974173,0.6619434397012943,-0.06832550852447224,0.7422764373496087
1580572350764091834,265,1580572350764091834,world,47.87675964939129,-4.095403754654221,1.0365953535279289,0.07909604968434991,0.662602757595763,-0.06842221759513378,0.7416332383784043
1580572350882110700,266,1580572350882110700,world,47.877916794114896,-4.096150594609238,1.0375810774572756,0.07922786100473582,0.6630520789971762,-0.06858829514921456,0.7412021319804896
1580572350998785295,267,1580572350998785295,world,47.87727915812306,-4.095895949813649,1.0377998398139994,0.0789852679348171,0.6625015511280269,-0.06880021858116728,0.7417004241833111
1580572351113797591,268,1580572351113797591,world,47.88135717916927,-4.098731926820236,1.037276462904373,0.0787273564739268,0.6615949519549259,-0.06906955180309664,0.7425116985375608
1580572351230401025,269,1580572351230401025,world,47.89086473614702,-4.10225577552287,1.0376003534213396,0.07877060051477183,0.6617552449739041,-0.06891833251305336,0.7423783207581605
1580572351345122814,270,1580572351345122814,world,47.89382291588194,-4.102940044311634,1.0370545156426374,0.07886542611504067,0.6619370595106024,-0.06884997655863108,0.742212455731496
1580572351462330124,271,1580572351462330124,world,47.89736731843436,-4.104067892680423,1.0372835565881928,0.07888619375705713,0.6616385416968651,-0.06892780283890738,0.7424691318427652
1580572351576308335,272,1580572351576308335,world,47.90157442058086,-4.1041177551214645,1.0372960590291314,0.07883775373814847,0.6616563921529419,-0.0689682672955182,0.7424546413502885
1580572351693525983,273,1580572351693525983,world,47.904307542699456,-4.10513497398712,1.035802805658392,0.07890263293309017,0.6616252166527821,-0.06906473428079413,0.7424665629118147
1580572351807838575,274,1580572351807838575,world,47.909615172825085,-4.105497570659345,1.0352879190684803,0.07893419041472213,0.6614174305442486,-0.06911234970957089,0.742643848462517
1580572351926161915,275,1580572351926161915,world,47.918337083998665,-4.106541191071457,1.036054940962714,0.07905519522833393,0.6611721384594389,-0.0691640116797145,0.7428445417388642
1580572352042292824,276,1580572352042292824,world,47.94466417298622,-4.112994270301073,1.0347800839459182,0.07906644807286367,0.6609514493769283,-0.06955611764223847,0.743003115977329
1580572352157963787,277,1580572352157963787,world,47.962865538581525,-4.117843484479302,1.0355660350567746,0.07924791336788488,0.660809200038609,-0.06985316169893996,0.7430824204863835
1580572352270603361,278,1580572352270603361,world,47.983042386125874,-4.124116670590013,1.0368508483711594,0.07961770963172342,0.6606424010837928,-0.0700938199517999,0.7431686240819422
1580572352391706772,279,1580572352391706772,world,48.00357947586929,-4.13438973918716,1.041245251830162,0.08008548831627485,0.6604272029703181,-0.07028707124613005,0.7432913351667844
1580572352510323498,280,1580572352510323498,world,48.035930071179024,-4.144562846467192,1.040727991174947,0.08076173595462993,0.6600186434439548,-0.07055319046156897,0.7435558354153702
1580572352622528192,281,1580572352622528192,world,48.06587706630893,-4.15486591252472,1.040836984649161,0.08162513106925642,0.6594657283918695,-0.07094461216555265,0.7439147926934556
1580572352736346557,282,1580572352736346557,world,48.08809239502031,-4.168405165221554,1.0434259523030676,0.0829227283653587,0.6588790884899671,-0.07091474434524152,0.7442938579275149
1580572352848688261,283,1580572352848688261,world,48.137537386618504,-4.1850604190262715,1.0453963463057505,0.08446349970442424,0.6582154323673807,-0.07119096333078401,0.7446813145939709
1580572352960650055,284,1580572352960650055,world,48.18497944549043,-4.201218260927153,1.0475599631087107,0.08591929434660255,0.6579804111512565,-0.07155896765391014,0.7446871375156278
1580572353076472558,285,1580572353076472558,world,48.22988586825659,-4.214275529677174,1.0504008756382177,0.0869638478786104,0.6582596186415294,-0.07212799270690828,0.7442641969139764
1580572353188399780,286,1580572353188399780,world,48.26587553933257,-4.224307372136302,1.0528923869659081,0.08753912468079864,0.6588194729674877,-0.0729598359590415,0.7436200621443061
1580572353301060351,287,1580572353301060351,world,48.28293102236336,-4.232383983537861,1.0566348556410787,0.08783517760632792,0.6590054791125824,-0.0736117253109211,0.7433559054816419
1580572353417716375,288,1580572353417716375,world,48.30784148245445,-4.241314610212999,1.0586952531029397,0.08810771161212326,0.658596050302695,-0.07418486309368805,0.7436296004927172
1580572353532660425,289,1580572353532660425,world,48.33765086838841,-4.250804871301842,1.0595377039874165,0.08841922028547744,0.6582016718530367,-0.07463090487136625,0.7438970853116419
1580572353647402306,290,1580572353647402306,world,48.36786222954947,-4.260606684810934,1.058531581564523,0.08856605762164962,0.6579788653038782,-0.07518935664785355,0.744020487381488
1580572353764042042,291,1580572353764042042,world,48.396928698578876,-4.271333518135894,1.0589815199629982,0.08883540687518245,0.6578261356793914,-0.07565539720861718,0.7440761628352468
1580572353880430870,292,1580572353880430870,world,48.438303202779565,-4.286597826999834,1.0623916831794702,0.08911050819003101,0.6577052512720686,-0.07616263039997723,0.7440983717729481
1580572353992715832,293,1580572353992715832,world,48.46491883381236,-4.295114032587403,1.0636426914806805,0.08937709257016593,0.6575568256518524,-0.07675266309953199,0.744136980503399
1580572354105881843,294,1580572354105881843,world,48.49233404484636,-4.303876006727325,1.0637513587309968,0.08961005964573193,0.6575381868587841,-0.07759361601523654,0.7440381918264529
1580572354224103175,295,1580572354224103175,world,48.522781296276435,-4.312845865000071,1.0662993425364107,0.08997933290881312,0.657556168513403,-0.0783708485721989,0.7438962440002073
1580572354336055367,296,1580572354336055367,world,48.5536096755728,-4.321568176891731,1.0690734061051899,0.09042858689706738,0.657508902163088,-0.07939141187603597,0.7437753055979752
1580572354448656418,297,1580572354448656418,world,48.58575357089427,-4.3394470159099825,1.073446643674174,0.09087850394914747,0.657511746044377,-0.08040627100239113,0.7436089606351572
1580572354559705090,298,1580572354559705090,world,48.61805758661066,-4.352194976561282,1.0735853441776726,0.09147843573653311,0.657523921992961,-0.08145926523593328,0.7434099469845618
1580572354673980848,299,1580572354673980848,world,48.628976419022706,-4.3624092629073274,1.078008170553943,0.09205970173627025,0.6575374140588034,-0.08295785674196295,0.7431605936738915
1580572354787197698,300,1580572354787197698,world,48.66165299654432,-4.373450124999803,1.0761986312054148,0.09298641882809038,0.6574351630583518,-0.08446103362969878,0.7429662935073948
1580572354902826396,301,1580572354902826396,world,48.69646476374979,-4.38857727775633,1.076310808743301,0.09416886788495113,0.657377698996275,-0.08584004344815016,0.7427101302871973
1580572355019707858,302,1580572355019707858,world,48.73064781481702,-4.402181376059119,1.0785561144559495,0.09560516437949321,0.6572547106356685,-0.08732480366687896,0.7424623281702984
1580572355133898122,303,1580572355133898122,world,48.77030932968631,-4.421745215778131,1.07943121114198,0.09713187486595654,0.657060813830951,-0.08914090795859154,0.7422199643714462
1580572355247742641,304,1580572355247742641,world,48.81364209119414,-4.441927097654762,1.0813416633874056,0.09883979681752093,0.6567848149103274,-0.09098701046966404,0.7420147142557915
1580572355358839875,305,1580572355358839875,world,48.85653398136313,-4.46267249655142,1.0847289759965406,0.10065616228044205,0.6564925269209105,-0.09300170848859778,0.7417793958873552
1580572355471414391,306,1580572355471414391,world,48.90221697990589,-4.488047225969943,1.0877086287281372,0.10277346682622235,0.656172032187371,-0.09510287651674863,0.7415061634139392
1580572355586444584,307,1580572355586444584,world,48.95009427353875,-4.513910393979522,1.0895508281447803,0.10496788085237359,0.6557669114917221,-0.09735758215473163,0.7412645122078839
1580572355701776785,308,1580572355701776785,world,49.02045807039198,-4.54563868895076,1.0927623059691314,0.1074789892760274,0.6553816688715057,-0.09974165709042636,0.7409282843999311
1580572355812145354,309,1580572355812145354,world,49.077898726812634,-4.577466725713457,1.0965596555693935,0.1103642336591287,0.6550497103432256,-0.10202503785048936,0.740486695860401
1580572355922886274,310,1580572355922886274,world,49.13896926348258,-4.61286034138044,1.0995481924928185,0.11325651328489347,0.6546470591811361,-0.10449060954404786,0.7400621601365228
1580572356036321233,311,1580572356036321233,world,49.20227784045298,-4.648694121762112,1.1007378757708466,0.11622597797860439,0.6542085945424985,-0.10747558214126623,0.7395618372913965
1580572356148685152,312,1580572356148685152,world,49.26504469095576,-4.686835711312675,1.1040521788267483,0.1190727121219062,0.6537222969720238,-0.11037996204827809,0.7391110454689076
1580572356260173269,313,1580572356260173269,world,49.332346550882306,-4.727349019281384,1.1072238021550334,0.12214068623840924,0.6531547358656489,-0.1132740555061313,0.7386742812207759
1580572356376349958,314,1580572356376349958,world,49.39916883960868,-4.774238378484043,1.1097676724757264,0.12531722012483135,0.6526539533461221,-0.11645002885877355,0.7380906721913645
1580572356487816012,315,1580572356487816012,world,49.46911622290446,-4.818264469149739,1.1138051527120183,0.12875648684325786,0.6520050196836935,-0.11973868347048881,0.737545898593311
1580572356598851487,316,1580572356598851487,world,49.54304962026268,-4.8656771643371854,1.1202979413174319,0.13215216065092145,0.6512393347918397,-0.12277950737977705,0.7371216401503417
1580572356711795722,317,1580572356711795722,world,49.64776218570444,-4.937895679356707,1.125146611903233,0.13627757662461887,0.6501994649087497,-0.12583704523625436,0.7367728228663294
1580572356827227851,318,1580572356827227851,world,49.73298594950745,-5.004248819913514,1.1337138799841,0.14045571950059227,0.6491257701319418,-0.12930763615733729,0.7363338116089785
1580572356944260492,319,1580572356944260492,world,49.87129269426006,-5.104479933322871,1.1443842880132138,0.14519751413811077,0.6479012512321516,-0.1339206919214326,0.7356677344524318
1580572357052685473,320,1580572357052685473,world,49.97019630994396,-5.18148260022646,1.1536793168889403,0.14983106857259743,0.6467258886620266,-0.13832692936400365,0.7349571396209776
1580572357164027583,321,1580572357164027583,world,50.071866201123925,-5.276421170208813,1.176400518309066,0.1549534577447141,0.6452561323724367,-0.14394519746821735,0.7341074760627938
1580572357280206827,322,1580572357280206827,world,50.206272073324584,-5.381867359368755,1.1884781374006081,0.16144220555628594,0.6431386171554689,-0.1491529316789248,0.7335275366235776
1580572357389276019,323,1580572357389276019,world,50.34071046687973,-5.484009115885982,1.201633776075596,0.16937870521995652,0.6406956960286601,-0.15512450051213875,0.7326365245361103
1580572357503533836,324,1580572357503533836,world,50.447369484902566,-5.6111140925432395,1.2052480760843594,0.17633474108432734,0.6382505370119164,-0.16170882287862526,0.7317052565183159
1580572357615780244,325,1580572357615780244,world,50.61991214718674,-5.754755494684687,1.2148834169250904,0.1841233831549933,0.6354154948526282,-0.16948919016504715,0.7304924537770237
1580572357734424822,326,1580572357734424822,world,50.81499634260368,-5.9082939212768935,1.228411600411249,0.19256777374059422,0.6336103247012461,-0.17767289874931266,0.7279340862103397
1580572357845605186,327,1580572357845605186,world,50.99852220011965,-6.068105729056896,1.2414109764736452,0.20133084609241134,0.6324689741335411,-0.18567763487984393,0.7245500236943476
1580572357955984028,328,1580572357955984028,world,51.19334223347184,-6.212457007794143,1.2400961069981236,0.2091164236725163,0.6306004976320265,-0.19484723764300682,0.7215594035297367
1580572358066924967,329,1580572358066924967,world,51.36749023489949,-6.380644651295768,1.247626047627051,0.21651539481582754,0.6276896227677583,-0.20392120958115545,0.7194046791410473
1580572358175657525,330,1580572358175657525,world,51.54190133350835,-6.555550256986734,1.258469591447465,0.22546890585179963,0.6232658110881703,-0.2119460569749995,0.7181799742902168
1580572358288513153,331,1580572358288513153,world,51.71311626087754,-6.747345674699332,1.2694512547875547,0.23419019896011142,0.6204830014516772,-0.21974984201645567,0.7154480511315622
1580572358400078801,332,1580572358400078801,world,51.86458823288615,-6.917421483112321,1.2791088172649552,0.2435725393522459,0.6177322999583199,-0.22763743458539487,0.7122221961447506
1580572358509994594,333,1580572358509994594,world,52.03745246526594,-7.0992246503556515,1.287309148210312,0.2516822443861421,0.6154105406047516,-0.23605015340169658,0.7086651506379325
1580572358621170455,334,1580572358621170455,world,52.19946512466768,-7.295751338973801,1.2990000460636395,0.26046069286354223,0.6123406242652546,-0.24370399727071745,0.7055548327067653
1580572358731057981,335,1580572358731057981,world,52.341687714616796,-7.489297636087201,1.311800962200465,0.26869232308613006,0.6086133025137819,-0.25142243738570325,0.702980090149668
1580572358839259669,336,1580572358839259669,world,52.55495263106502,-7.75861346669943,1.3278222835057818,0.27710810806192077,0.6047125214494008,-0.2591003952350368,0.700286306004553
1580572358954398734,337,1580572358954398734,world,52.71673302647716,-7.992706977167046,1.3371419335706207,0.284861644697505,0.6012667218274893,-0.2672918430175457,0.697056116422915
1580572359066110542,338,1580572359066110542,world,52.85829726959568,-8.214641232757586,1.3490068669576942,0.29241790579541505,0.5979519955157833,-0.276722243394669,0.6930874143407464
1580572359176665631,339,1580572359176665631,world,53.022206298690776,-8.450488087413731,1.3559329122430768,0.2994004577649652,0.5944982063762919,-0.28623756050544025,0.6892019143790868
1580572359291376667,340,1580572359291376667,world,53.1716341297969,-8.732436653244463,1.3751762081880656,0.30673365354579857,0.5913534421523047,-0.29563548014710944,0.6847008813258176
1580572359403873859,341,1580572359403873859,world,53.33725245305024,-9.011403355985095,1.3866432546539897,0.3149371446259077,0.587843603366674,-0.3043513268063619,0.6801653968691999
1580572359513627484,342,1580572359513627484,world,53.55213779933061,-9.346117171989974,1.3974252421291453,0.3245441859986394,0.5828148539008133,-0.3129280044495625,0.6760725374819414
1580572359626364887,343,1580572359626364887,world,53.70168881984068,-9.664999494740812,1.4073248172889237,0.33483036030345614,0.5774797337964666,-0.3205426512437003,0.6720552202751235
1580572359742175035,344,1580572359742175035,world,53.85913471280472,-10.015038113462609,1.4280532587710582,0.3451615562947082,0.5724345492509618,-0.32928966247649777,0.6668962043744571
1580572359851514021,345,1580572359851514021,world,53.99941334242368,-10.349175973524169,1.434281876383352,0.3538018787462079,0.5677286097610581,-0.3402222023967644,0.66087621445289
1580572359961965105,346,1580572359961965105,world,54.12841178764819,-10.704351550121658,1.441898520115103,0.36217608561931863,0.5624779456694441,-0.3514646236432672,0.6549195927486087
1580572360074160148,347,1580572360074160148,world,54.245380382136545,-11.079356651665933,1.4494457602713737,0.37140665788817884,0.5565653584627299,-0.3619083322363016,0.649087419320797
1580572360185609167,348,1580572360185609167,world,54.37180037645618,-11.416084585120387,1.467553359902979,0.38250463798375695,0.5497131891449953,-0.371980931520879,0.6427565213959067
1580572360299081233,349,1580572360299081233,world,54.5524008855877,-11.868666941263626,1.4709148800412777,0.3925747392590502,0.5433111251891642,-0.38230449264958305,0.6360357869369306
1580572360410123205,350,1580572360410123205,world,54.638558752821126,-12.280214614761249,1.4801047097273,0.4025542429689964,0.5369766938684786,-0.39196190892065746,0.6292630007131704
1580572360526026435,351,1580572360526026435,world,54.706771483741875,-12.633149978716219,1.4831005514385822,0.4114659863313428,0.5310803959899859,-0.40214918818274076,0.6220333980704318
1580572360637549573,352,1580572360637549573,world,54.77045530417172,-13.06759593994262,1.4916159629271135,0.4201577588595555,0.5252899857059022,-0.4108774354986642,0.6154005280429508
1580572360749662628,353,1580572360749662628,world,54.83705336532657,-13.538868954865833,1.5108343285587864,0.4288721851453714,0.5192359195525434,-0.4187028572261297,0.6092215613833276
1580572360863659971,354,1580572360863659971,world,54.938269781417944,-14.083370883584521,1.5198677619973182,0.4363812363013775,0.5134062012123405,-0.42677603444646606,0.6031981191636164
1580572360977631887,355,1580572360977631887,world,54.97462738539724,-14.57371093336063,1.530774977582439,0.4437444185639444,0.5076620294505441,-0.43298765312909,0.5982405729455734
1580572361096734574,356,1580572361096734574,world,54.998971351282364,-15.071619805780145,1.5340978702591883,0.4497452935290724,0.5031311730609025,-0.4390034316729732,0.5931812121864207
1580572361208794038,357,1580572361208794038,world,55.12181602337796,-15.625819163205591,1.5309664785889368,0.4534594729581342,0.4995258561013017,-0.44631906153169165,0.5879181510082876
1580572361321452997,358,1580572361321452997,world,55.13044545032531,-16.077645049892283,1.5488619292441967,0.4565201483080122,0.4963407110136616,-0.45142202117378766,0.5843401051878934
